full_location,zip_codes,country_codes,zip_country,latitude,longitude
"11500 PUERTO DE SANTA MARIA, ES",11500,ES,"11500, ES",38.6890656,0.1443295
"26140 LOGROÑO, ES",26140,ES,"26140, ES",42.427832689999995,-2.4604640399999997
"43004 TARRAGONA, ES",43004,ES,"43004, ES",41.11208395625,1.25090520625
"8029 BARCELONA, ES",8029,ES,"8029, ES",37.7061762,-2.9351876
"30007 CASILLAS, ES",30007,ES,"30007, ES",40.0640691,-6.6610449
"42655 Solingen, DE",42655,DE,"42655, DE",51.16989628467397,7.0619474538077105
"46980 PATERNA, ES",46980,ES,"46980, ES",39.530974117777774,-0.44623051555555554
"50012 ZARAGOZA, ES",50012,ES,"50012, ES",41.63647731730583,-0.931024631517886
"3500 Hasselt, BE",3500,BE,"3500, BE",50.92928774845785,5.3266594075394105
"33392 GIJON, ES",33392,ES,"33392, ES",43.49906565,-5.704951275
"1000 Brussel, BE",1000,BE,"1000, BE",50.86188435,4.352997939561595
"39608 IGOLLO DE CAMARGO, ES",39608,ES,"39608, ES",43.42776,-3.8845
"29004 MALAGA, ES",29004,ES,"29004, ES",36.68495975258412,-4.467507040959588
"1000 Brussel, BE",1000,BE,"1000, BE",50.86188435,4.352997939561595
"37120 DOÑINOS DE SALAMANCA, ES",37120,ES,"37120, ES",40.9592297,-5.7461394
"15926 Luckau, DE",15926,DE,"15926, DE",51.8524163,13.7150055
"3960 Bree, BE",3960,BE,"3960, BE",51.13589070574033,5.610660560205977
"23600 MARTOS, ES",23600,ES,"23600, ES",37.71842748481013,-3.970622962025317
"29603 MALAGA, ES",29603,ES,"29603, ES",36.514081890625,-4.8724034375
"29004 MALAGA, ES",29004,ES,"29004, ES",36.68495975258412,-4.467507040959588
"36860 PONTEAEREAS, ES",36860,ES,"36860, ES",36.68495975258412,-4.467507040959588
"07610 Palma de Mallorca, ES",07610,ES,"07610, ES",39.53250795636364,2.724348095454545
"18015 GRANADA, ES",18015,ES,"18015, ES",37.19112123055556,-3.6268609083333336
"9160 Lokeren, BE",9160,BE,"9160, BE",51.11260812619048,3.9872444809523806
"33429 SIERO, ES",33429,ES,"33429, ES",43.39200498823529,-5.799200194117647
"28034 Madrid, ES",28034,ES,"28034, ES",40.49080290091463,-3.6964509394054876
"8017 BARCELONA, ES",8017,ES,"8017, ES",37.7061762,-2.9351876
"3500 Hasselt, BE",3500,BE,"3500, BE",50.92928774845785,5.3266594075394105
"39012 PEÑACASTILLO, ES",39012,ES,"39012, ES",43.4458084,-3.8659624
"67098 Bad Duerkheim, DE",67098,DE,"67098, DE",49.46002728337766,8.16430576544453
"8530 Harelbeke, BE",8530,BE,"8530, BE",50.84742325508444,3.3120726170918675
"8530 Harelbeke, BE",8530,BE,"8530, BE",50.84742325508444,3.3120726170918675
"50012 ZARAGOZA, ES",50012,ES,"50012, ES",41.63647731730583,-0.931024631517886
"30530 CIEZA, ES",30530,ES,"30530, ES",38.24045029047619,-1.4205627333333335
"46014 Valencia, ES",46014,ES,"46014, ES",39.46418341659751,-0.40298210580912863
"50012 ZARAGOZA, ES",50012,ES,"50012, ES",41.63647731730583,-0.931024631517886
"36418 MOS, ES",36418,ES,"36418, ES",42.2030958,-8.6085418
"14029 CORDOBA, ES",14029,ES,"14029, ES",37.9712426375,-4.84153833125
"5330 Assesse, BE",5330,BE,"5330, BE",50.38481225813304,4.994294080380101
"1000 Brussel, BE",1000,BE,"1000, BE",50.86188435,4.352997939561595
"03006 ALICANTE, ES",03006,ES,"03006, ES",38.3441588626506,-0.5050429397590361
1840 Londerzeel ( A,1840,BE,"1840, BE",51.0122466,4.299072941633785
"58285 Gevelsberg, DE",58285,DE,"58285, DE",51.3322741,7.3755113
"36860 PONTEAEREAS, ES",36860,ES,"36860, ES",51.3322741,7.3755113
"8029 BARCELONA, ES",8029,ES,"8029, ES",37.7061762,-2.9351876
"22004 HUESCA, ES",22004,ES,"22004, ES",42.13718666049869,-0.41793492454068243
"46190 Riba-roja de Túria, ES",46190,ES,"46190, ES",39.538923819354835,-0.5657088258064515
"41300 SEVILLA, ES",41300,ES,"41300, ES",37.778215864705885,-5.662628505882353
"28034 Madrid, ES",28034,ES,"28034, ES",40.49080290091463,-3.6964509394054876
"46539 Dinslaken, DE",46539,DE,"46539, DE",51.563637040561794,6.773099611685394
"28022 MADRID, ES",28022,ES,"28022, ES",40.43622689287672,-3.6050101016438356
"29004 MALAGA, ES",29004,ES,"29004, ES",36.68495975258412,-4.467507040959588
"50011 ZARAGOZA, ES",50011,ES,"50011, ES",41.65574424680428,-0.9299814864231838
"41001 SEVILLA, ES",41001,ES,"41001, ES",37.388440747474746,-5.9964936575757575
"22004 HUESCA, ES",22004,ES,"22004, ES",42.13718666049869,-0.41793492454068243
"3960 Bree, BE",3960,BE,"3960, BE",51.13589070574033,5.610660560205977
"09007 BURGOS, ES",09007,ES,"09007, ES",42.3548482054,-3.6525912815
"46190 Riba-roja de Túria, ES",46190,ES,"46190, ES",39.538923819354835,-0.5657088258064515
"86707 Westendorf, DE",86707,DE,"86707, DE",48.573687051111115,10.839039800740741
"4000 Liège, BE",4000,BE,"4000, BE",50.6476489,5.559432849428294
"28022 MADRID, ES",28022,ES,"28022, ES",40.43622689287672,-3.6050101016438356
"41001 SEVILLA, ES",41001,ES,"41001, ES",37.388440747474746,-5.9964936575757575
"3500 Hasselt, BE",3500,BE,"3500, BE",50.92928774845785,5.3266594075394105
"64625 Bensheim, DE",64625,DE,"64625, DE",49.6901153,8.6185243
"43001 TARRAGONA, ES",43001,ES,"43001, ES",41.11523875,1.248846494642857
"67098 Bad Duerkheim, DE",67098,DE,"67098, DE",49.46002728337766,8.16430576544453
"28045 MADRID, ES",28045,ES,"28045, ES",40.397419907224716,-3.6932718065769805
"64625 Bensheim, DE",64625,DE,"64625, DE",49.6901153,8.6185243
"46930 QUART DE POBLET, ES",46930,ES,"46930, ES",39.47981365,-0.45104650999999996
"69469 Weinheim, DE",69469,DE,"69469, DE",49.5207852,8.698667
"08226 TERRASSA, ES",08226,ES,"08226, ES",41.57732056428571,2.0229839928571427
"50014 ZARAGOZA, ES",50014,ES,"50014, ES",41.663136554084865,-0.8642694141861937
"3500 Hasselt, BE",3500,BE,"3500, BE",50.92928774845785,5.3266594075394105
"28939 ARROYOMOLINOS, ES",28939,ES,"28939, ES",40.27836419183673,-3.9166159183673472
"28500 ARGANDA DEL REY, ES",28500,ES,"28500, ES",40.30739136554622,-3.4537147966386557
"46539 Dinslaken, DE",46539,DE,"46539, DE",51.563637040561794,6.773099611685394
"45772 Marl, DE",45772,DE,"45772, DE",51.6877321,7.1226924
"41001 SEVILLA, ES",41001,ES,"41001, ES",37.388440747474746,-5.9964936575757575
"28500 ARGANDA DEL REY, ES",28500,ES,"28500, ES",40.30739136554622,-3.4537147966386557
"46930 QUART DE POBLET, ES",46930,ES,"46930, ES",39.47981365,-0.45104650999999996
"09001 BURGOS, ES",09001,ES,"09001, ES",42.35648954932065,-3.7290942523097828
"46470 MASSANASSA, ES",46470,ES,"46470, ES",39.4108561,-0.4000846
1840 Londerzeel ( A,1840,BE,"1840, BE",51.0122466,4.299072941633785
1840 Londerzeel ( A,1840,BE,"1840, BE",51.0122466,4.299072941633785
"09007 BURGOS, ES",09007,ES,"09007, ES",42.3548482054,-3.6525912815
"1000 Brussel, BE",1000,BE,"1000, BE",50.86188435,4.352997939561595
"29700 VELEZ, ES",29700,ES,"29700, ES",36.785486705833335,-4.1070178083333335
"2000 Stockerau, AT",2000,AT,"2000, AT",48.3896423995723,16.206941623156823
"8253 RD DRONTEN, NL",8253,NL,"8253, NL",52.53831977111111,5.710210411111111
"7328 KL APELDOORN, NL",7328,NL,"7328, NL",52.20542436666667,5.982959166666666
"28823 COSLADA, ES",28823,ES,"28823, ES",40.429768151893406,-3.53875151374474
"9723 AX GRONINGEN, NL",9723,NL,"9723, NL",53.21628363125,6.594050525
"7333 NX APELDOORN, NL",7333,NL,"7333, NL",52.18096384,5.9796771
"7141 CS GROENLO, NL",7141,NL,"7141, NL",52.042744875,6.6239909
"8203 SABADELL, ES",8203,ES,"8203, ES",41.5421013,2.1138977
"5175 AX LOON OP ZAND, NL",5175,NL,"5175, NL",51.627356454901964,5.0652646431372546
"28001 GETAFE, ES",28001,ES,"28001, ES",40.3081807,-3.7302679
"7322 AJ APELDOORN, NL",7322,NL,"7322, NL",52.225926535955054,5.974840830337079
"5015 BM TILBURG, NL",5015,NL,"5015, NL",51.57207084782609,5.115676543478261
"5613 LE EINDHOVEN, NL",5613,NL,"5613, NL",51.43546994285714,5.497326671428572
"6826 TS ARNHEM, NL",6826,NL,"6826, NL",51.9780787,5.9172904
"5015 AS TILBURG, NL",5015,NL,"5015, NL",51.568295973913045,5.106569047826087
"1688 JB NIBBIXWOUD, NL",1688,NL,"1688, NL",52.69227953043478,5.03884187826087
"3542 DJ UTRECHT, NL",3542,NL,"3542, NL",52.121561172727276,5.044513872727273
"6603 BV WIJCHEN, NL",6603,NL,"6603, NL",51.815019110526315,5.759854921052631
"2941 CG LEKKERKERK, NL",2941,NL,"2941, NL",51.90185616428571,4.692163978571428
"4879 AN ETTEN-LEUR, NL",4879,NL,"4879, NL",51.562966025641025,4.623479415384615
"7141 CS GROENLO, NL",7141,NL,"7141, NL",52.042744875,6.6239909
"6603 BV WIJCHEN, NL",6603,NL,"6603, NL",51.815019110526315,5.759854921052631
"8445 PN HEERENVEEN, NL",8445,NL,"8445, NL",52.93226825,5.945405575
"8281 JK GENEMUIDEN, NL",8281,NL,"8281, NL",52.61599662758621,6.064329851724138
"8013 NG ZWOLLE, NL",8013,NL,"8013, NL",52.49458273846154,6.1220982
"6850 Dornbirn, AT",6850,AT,"6850, AT",47.3504002,9.7428554
"5613 LE EINDHOVEN, NL",5613,NL,"5613, NL",51.43546994285714,5.497326671428572
"5613 LE EINDHOVEN, NL",5613,NL,"5613, NL",51.43546994285714,5.497326671428572
"2921 LP Krimpen aan de IJssel, NL",2921,NL,"2921, NL",51.90862980465116,4.581030511627907
"8017 BARCELONA, ES",8017,ES,"8017, ES",37.7061762,-2.9351876
"4879 AN ETTEN-LEUR, NL",4879,NL,"4879, NL",51.562966025641025,4.623479415384615
"6001 DA WEERT, NL",6001,NL,"6001, NL",51.264540175757574,5.728067457575758
"4700 Eupen, BE",4700,BE,"4700, BE",50.628218611778586,6.034883497767695
"8321 WV URK, NL",8321,NL,"8321, NL",52.65137215,5.627900075
"9411 VR BEILEN, NL",9411,NL,"9411, NL",52.86238744186047,6.494456090697675
"2821 LH STOLWIJK, NL",2821,NL,"2821, NL",51.97374689,4.76581565
"5015 BM TILBURG, NL",5015,NL,"5015, NL",51.57207084782609,5.115676543478261
"5175 AX LOON OP ZAND, NL",5175,NL,"5175, NL",51.627356454901964,5.0652646431372546
"8601 VC SNEEK, NL",8601,NL,"8601, NL",53.038374475,5.626820046428572
"3897 AL ZEEWOLDE, NL",3897,NL,"3897, NL",52.35120592954546,5.4939420613636365
"1812 RK ALKMAAR, NL",1812,NL,"1812, NL",52.611576772727275,4.749913318181818
"6744 WZ EDERVEEN, NL",6744,NL,"6744, NL",52.06510506756757,5.581112756756757
"2921 LP Krimpen aan de IJssel, NL",2921,NL,"2921, NL",51.90862980465116,4.581030511627907
"5613 LE EINDHOVEN, NL",5613,NL,"5613, NL",51.43546994285714,5.497326671428572
"33460 AVILES, ES",33460,ES,"33460, ES",43.5497636625,-5.9037036625
"43006 TARRAGONA, ES",43006,ES,"43006, ES",41.11996153404255,1.2168005223404255
"48960 GALDAKANO, ES",48960,ES,"48960, ES",41.11996153404255,1.2168005223404255
"3500 Hasselt, BE",3500,BE,"3500, BE",50.92928774845785,5.3266594075394105
"7322 AJ APELDOORN, NL",7322,NL,"7322, NL",52.225926535955054,5.974840830337079
"11300 La Línea de la Concepción, ES",11300,ES,"11300, ES",36.16962787435897,-5.350451546153846
"7141 CS GROENLO, NL",7141,NL,"7141, NL",52.042744875,6.6239909
"46930 Quart de Poblet, ES",46930,ES,"46930, ES",39.47981365,-0.45104650999999996
"6666 LP HETEREN, NL",6666,NL,"6666, NL",51.9554341,5.7573215
"42160 Andrézieux-Bouthéon, FR",42160,FR,"42160, FR",45.528974385714285,4.2607224285714285
"8201 SABADELL, ES",8201,ES,"8201, ES",41.5421013,2.1138977
"13100 Aix en Provence, FR",13100,FR,"13100, FR",43.52108550511464,5.432955125044092
"7322 AJ APELDOORN, NL",7322,NL,"7322, NL",52.225926535955054,5.974840830337079
"63000 Clermont Ferrand, FR",63000,FR,"63000, FR",45.74784941077586,3.159978508189655
"29004 Málaga, ES",29004,ES,"29004, ES",36.68495975258412,-4.467507040959588
"36860 PONTEAEREAS, ES",36860,ES,"36860, ES",36.68495975258412,-4.467507040959588
"07610 Palma de Mallorca, ES",07610,ES,"07610, ES",39.53250795636364,2.724348095454545
"5142 Eggelsberg, AT",5142,AT,"5142, AT",48.07974898806306,12.98456445259009
"4879 AN ETTEN-LEUR, NL",4879,NL,"4879, NL",51.562966025641025,4.623479415384615
"5349 AK OSS, NL",5349,NL,"5349, NL",51.763790069473686,5.548794731578948
"7102 DX WINTERSWIJK, NL",7102,NL,"7102, NL",51.96256838181818,6.719499545454545
"8029 BARCELONA, ES",8029,ES,"8029, ES",37.7061762,-2.9351876
"29004 Málaga, ES",29004,ES,"29004, ES",36.68495975258412,-4.467507040959588
"29004 MALAGA, ES",29004,ES,"29004, ES",36.68495975258412,-4.467507040959588
"6001 DA WEERT, NL",6001,NL,"6001, NL",51.264540175757574,5.728067457575758
"28343 VALDEMORO, ES",28343,ES,"28343, ES",40.19069125,-3.66829205
"4879 AN ETTEN-LEUR, NL",4879,NL,"4879, NL",51.562966025641025,4.623479415384615
"8345 HJ KALLENKOTE, NL",8345,NL,"8345, NL",52.788184185000006,6.1583396100000005
"5753 PM DEURNE, NL",5753,NL,"5753, NL",51.452519925663715,5.804776347787611
"8029 BARCELONA, ES",8029,ES,"8029, ES",37.7061762,-2.9351876
"75011 Paris, FR",75011,FR,"75011, FR",48.85887969460352,2.378148545044053
"28034 Madrid, ES",28034,ES,"28034, ES",40.49080290091463,-3.6964509394054876
"9403 DL ASSEN, NL",9403,NL,"9403, NL",53.02673195,6.577008433333334
"9005 XS WERGEA, NL",9005,NL,"9005, NL",53.152005233333334,5.8555393
"5015 BM TILBURG, NL",5015,NL,"5015, NL",51.57207084782609,5.115676543478261
"2921 LP Krimpen aan de IJssel, NL",2921,NL,"2921, NL",51.90862980465116,4.581030511627907
"2222 AG KATWIJK, NL",2222,NL,"2222, NL",52.20201232909091,4.435842004545455
"77100 Meaux, FR",77100,FR,"77100, FR",48.950378465584414,2.887394588961039
"60740 Saint Maximin, FR",60740,FR,"60740, FR",49.23131123684211,2.458727989473684
"77100 Meaux, FR",77100,FR,"77100, FR",48.950378465584414,2.887394588961039
"3621 ZA BREUKELEN, NL",3621,NL,"3621, NL",52.17753315666667,4.989063486666667
"5171 DV KAATSHEUVEL, NL",5171,NL,"5171, NL",51.664413960000005,5.0330841600000005
"36418 MOS, ES",36418,ES,"36418, ES",42.2030958,-8.6085418
"67800 Bischheim, FR",67800,FR,"67800, FR",48.61681684313725,7.749660789215687
"2371 EW ROELOFARENDSVEEN, NL",2371,NL,"2371, NL",52.2027992375,4.62074785
"50012 ZARAGOZA, ES",50012,ES,"50012, ES",41.63647731730583,-0.931024631517886
"6551 ZX WEURT, NL",6551,NL,"6551, NL",51.85850681666667,5.815793183333334
"4879 AN ETTEN-LEUR, NL",4879,NL,"4879, NL",51.562966025641025,4.623479415384615
"5513 NR WINTELRE, NL",5513,NL,"5513, NL",51.46171743263157,5.339946281052632
"28046 MADRID, ES",28046,ES,"28046, ES",40.47129766243094,-3.680731682320442
"5753 PM DEURNE, NL",5753,NL,"5753, NL",51.452519925663715,5.804776347787611
"1101 BA AMSTERDAM, NL",1101,NL,"1101, NL",52.30921690714286,4.94593625
"75011 Paris, FR",75011,FR,"75011, FR",48.85887969460352,2.378148545044053
"6850 Dornbirn, AT",6850,AT,"6850, AT",47.3504002,9.7428554
"75011 Paris, FR",75011,FR,"75011, FR",48.85887969460352,2.378148545044053
"2841 MC MOORDRECHT, NL",2841,NL,"2841, NL",52.018067914035086,4.655746157894736
"45380 La Chapelle St Mesmin, FR",45380,FR,"45380, FR",47.8869822,1.8398174
"75011 Paris, FR",75011,FR,"75011, FR",48.85887969460352,2.378148545044053
"8091 CM WEZEP, NL",8091,NL,"8091, NL",52.46493816296296,5.990823377777778
"5258 BL BERLICUM NB, NL",5258,NL,"5258, NL",51.67520209375,5.39165833125
"8029 BARCELONA, ES",8029,ES,"8029, ES",37.7061762,-2.9351876
"7821 AC EMMEN, NL",7821,NL,"7821, NL",52.77292980714286,6.918589407142857
"4879 AN ETTEN-LEUR, NL",4879,NL,"4879, NL",51.562966025641025,4.623479415384615
"28002 MADRID, ES",28002,ES,"28002, ES",40.444858156360574,-3.67403179620893
"5753 PM DEURNE, NL",5753,NL,"5753, NL",51.452519925663715,5.804776347787611
"9502 EZ STADSKANAAL, NL",9502,NL,"9502, NL",52.97747888461539,6.97177188974359
"7380 Quiévrain, BE",7380,BE,"7380, BE",50.40317495,3.6847565899999997
"7711 AL NIEUWLEUSEN, NL",7711,NL,"7711, NL",52.58999358888889,6.283298688888888
"77240 Vert St Denis, FR",77240,FR,"77240, FR",48.5656818242236,2.6166697852173915
"3902 HR VEENENDAAL, NL",3902,NL,"3902, NL",52.0375965,5.5738071125
"6001 DA WEERT, NL",6001,NL,"6001, NL",51.264540175757574,5.728067457575758
"6850 Dornbirn, AT",6850,AT,"6850, AT",47.3504002,9.7428554
"7126 AA BREDEVOORT, NL",7126,NL,"7126, NL",51.94022570869565,6.619678330434783
"77240 Vert St Denis, FR",77240,FR,"77240, FR",48.5656818242236,2.6166697852173915
"2921 LP Krimpen aan de IJssel, NL",2921,NL,"2921, NL",51.90862980465116,4.581030511627907
"6161 DK GELEEN, NL",6161,NL,"6161, NL",50.95850087058824,5.813088705882352
"4879 AN ETTEN-LEUR, NL",4879,NL,"4879, NL",51.562966025641025,4.623479415384615
"77240 Vert St Denis, FR",77240,FR,"77240, FR",48.5656818242236,2.6166697852173915
"08200 Sedan, FR",08200,FR,"08200, FR",49.704982929787235,4.941874197872341
"75011 Paris, FR",75011,FR,"75011, FR",48.85887969460352,2.378148545044053
"3621 ZA BREUKELEN, NL",3621,NL,"3621, NL",52.17753315666667,4.989063486666667
"75011 Paris, FR",75011,FR,"75011, FR",48.85887969460352,2.378148545044053
"50059 Vinci - Firenze - Fi, IT",50059,IT,"50059, IT",43.752551982235815,10.932876222770588
"28830 SAN FERNANDO DE HENARES, ES",28830,ES,"28830, ES",40.42463438117988,-3.5282407216431415
"77240 Vert St Denis, FR",77240,FR,"77240, FR",48.5656818242236,2.6166697852173915
"2841 MC MOORDRECHT, NL",2841,NL,"2841, NL",52.018067914035086,4.655746157894736
"7447 JK HELLENDOORN, NL",7447,NL,"7447, NL",52.38384861111111,6.4490912
"41007 SEVILLA,  ",41007,ES,"41007, ES",37.3886303,-5.9953403
"3417 XS Montfoort, NL",3417,NL,"3417, NL",52.044682175675675,4.933117562162162
"1101 BA AMSTERDAM, NL",1101,NL,"1101, NL",52.30921690714286,4.94593625
"57050 METZ, FR",57050,FR,"57050, FR",49.13639922380952,6.137822595238095
"7821 AC EMMEN, NL",7821,NL,"7821, NL",52.77292980714286,6.918589407142857
"8445 PN HEERENVEEN, NL",8445,NL,"8445, NL",52.93226825,5.945405575
"3335 LH ZWIJNDRECHT, NL",3335,NL,"3335, NL",51.82461934130435,4.612493634782608
"75011 Paris, FR",75011,FR,"75011, FR",48.85887969460352,2.378148545044053
"8091 CM WEZEP, NL",8091,NL,"8091, NL",52.46493816296296,5.990823377777778
"6603 BC WIJCHEN, NL",6603,NL,"6603, NL",51.8120081,5.756829957142857
"17138 Puilboreau, FR",17138,FR,"17138, FR",46.186537703488376,-1.1133337337209304
"59640 Dunkerque, FR",59640,FR,"59640, FR",51.02019951378541,2.3374454822663395
"7447 JK HELLENDOORN, NL",7447,NL,"7447, NL",52.38384861111111,6.4490912
"00178 Roma - Rm, IT",00178,IT,"00178, IT",41.83730288173077,12.557174742307692
"77240 Vert St Denis, FR",77240,FR,"77240, FR",48.5656818242236,2.6166697852173915
"2830 Willebroek, BE",2830,BE,"2830, BE",51.0568678509434,4.363619454716981
"67100 Strasbourg, FR",67100,FR,"67100, FR",48.56464483832599,7.761174294273127
"7324 AZ APELDOORN, NL",7324,NL,"7324, NL",52.23731974,5.97892942
"77240 Vert St Denis, FR",77240,FR,"77240, FR",48.5656818242236,2.6166697852173915
"14029 CORDOBA, ES",14029,ES,"14029, ES",37.9712426375,-4.84153833125
"25770 Franois, FR",25770,FR,"25770, FR",47.23412892857143,5.9194492952380955
"60200 Compiegne, FR",60200,FR,"60200, FR",49.41638254172662,2.8228933566546766
"90000 Belfort, FR",90000,FR,"90000, FR",47.64673724685864,6.830267090575916
"9502 EX STADSKANAAL, NL",9502,NL,"9502, NL",52.98279398166667,6.978494338333334
"74600 Seynod, FR",74600,FR,"74600, FR",45.87820192719298,6.083321749122807
"54520 Laxou, FR",54520,FR,"54520, FR",48.68444323333333,6.130103233333333
"2830 Willebroek, BE",2830,BE,"2830, BE",51.0568678509434,4.363619454716981
"25770 Franois, FR",25770,FR,"25770, FR",47.23412892857143,5.9194492952380955
"67800 Bischheim, FR",67800,FR,"67800, FR",48.61681684313725,7.749660789215687
"60200 Compiegne, FR",60200,FR,"60200, FR",49.41638254172662,2.8228933566546766
"7380 Quiévrain, BE",7380,BE,"7380, BE",50.40317495,3.6847565899999997
"57050 METZ, FR",57050,FR,"57050, FR",49.13639922380952,6.137822595238095
"02006 ALBACETE, ES",02006,ES,"02006, ES",38.985497949999996,-1.8719616663663396
"68000 Colmar, FR",68000,FR,"68000, FR",48.08561756317568,7.356750426351352
"60200 Compiegne, FR",60200,FR,"60200, FR",49.41638254172662,2.8228933566546766
"14029 CORDOBA, ES",14029,ES,"14029, ES",37.9712426375,-4.84153833125
"68110 ILLZACH, FR",68110,FR,"68110, FR",47.7815313,7.347339
"3063 NP ROTTERDAM, NL",3063,NL,"3063, NL",51.90994283333333,4.536627766666666
"25770 Franois, FR",25770,FR,"25770, FR",47.23412892857143,5.9194492952380955
"21000 Dijon, FR",21000,FR,"21000, FR",47.326087203371706,5.044672252549342
"02000 Laon, FR",02000,FR,"02000, FR",49.55196331400966,3.5960238787439613
"7582 AG LOSSER, NL",7582,NL,"7582, NL",52.26338475,7.0001986625
"86000 Poitiers, FR",86000,FR,"86000, FR",46.574436608877,0.35043124513368984
"7333 PB APELDOORN, NL",7333,NL,"7333, NL",52.177359960000004,5.97831721
"9723 TX GRONINGEN, NL",9723,NL,"9723, NL",53.2061219,6.6165022
"7041 ZE 'S-HEERENBERG, NL",7041,NL,"7041, NL",51.87407264605263,6.251520855263158
"67800 Bischheim, FR",67800,FR,"67800, FR",48.61681684313725,7.749660789215687
"21200 Beaune, FR",21200,FR,"21200, FR",47.0190549022831,4.846390053424658
"60200 Compiegne, FR",60200,FR,"60200, FR",49.41638254172662,2.8228933566546766
"77240 Vert St Denis, FR",77240,FR,"77240, FR",48.5656818242236,2.6166697852173915
"60000 Beauvais, FR",60000,FR,"60000, FR",49.42685343333333,2.0924603676767677
"80136 Rivery, FR",80136,FR,"80136, FR",49.90618493142857,2.3297969914285717
"60740 Saint Maximin, FR",60740,FR,"60740, FR",49.23131123684211,2.458727989473684
"83140 Six-Fours-les-Plages, FR",83140,FR,"83140, FR",43.09861580469314,5.829875611913358
"6603 BC WIJCHEN, NL",6603,NL,"6603, NL",51.8120081,5.756829957142857
"20093 Cologno Monzese - Milano - MI, IT",20093,IT,"20093, IT",45.531938553356284,9.279220830636834
"43126 Parma - Pr, IT",43126,IT,"43126, IT",44.81595118095238,10.297291357142857
"1704 SR HEERHUGOWAARD, NL",1704,NL,"1704, NL",52.688659,4.83582185882353
"50059 Vinci - Firenze - Fi, IT",50059,IT,"50059, IT",43.752551982235815,10.932876222770588
"5100 Namur, BE",5100,BE,"5100, BE",50.436078403090676,4.881816802078397
"8017 BARCELONA, ES",8017,ES,"8017, ES",37.7061762,-2.9351876
"27192 SAN SALVADOR DE MUXA, ES",27192,ES,"27192, ES",43.0396255,-7.5348518
"29601 MARBELLA, ES",29601,ES,"29601, ES",36.51175110102041,-4.884151649339736
"12006 CASTELLÓN, ES",12006,ES,"12006, ES",39.985580528571425,-0.05819954285714285
"29630 Benalmadena, ES",29630,ES,"29630, ES",36.58959323913044,-4.538851382608695
"08029 BARCELONA, ES",08029,ES,"08029, ES",41.38664710327586,2.146568526724138
"8017 BARCELONA, ES",8017,ES,"8017, ES",37.7061762,-2.9351876
"08029 BARCELONA, ES",08029,ES,"08029, ES",41.38664710327586,2.146568526724138
"08029 BARCELONA, ES",08029,ES,"08029, ES",41.38664710327586,2.146568526724138
"08029 BARCELONA, ES",08029,ES,"08029, ES",41.38664710327586,2.146568526724138
"29660 PUERTO BANÚS, ES",29660,ES,"29660, ES",41.38664710327586,2.146568526724138
"3565 AJ UTRECHT, NL",3565,NL,"3565, NL",52.12673901428571,5.089430992857142
"08191 RUBI, ES",08191,ES,"08191, ES",41.50057298609626,2.038640573529412
"43004 TARRAGONA, ES",43004,ES,"43004, ES",41.11208395625,1.25090520625
"30560 ALGUAZAS, ES",30560,ES,"30560, ES",38.05289212727273,-1.2440569727272726
"36600 Vilagarcia de Arousa, ES",36600,ES,"36600, ES",42.59531538695652,-8.764200597826088
"08029 BARCELONA, ES",08029,ES,"08029, ES",41.38664710327586,2.146568526724138
"36619 VILLAGARCÍA DE AROSA, ES",36619,ES,"36619, ES",42.5836789,-8.741526
"37008 SALAMANCA, ES",37008,ES,"37008, ES",40.95187947649212,-5.678820320411036
"43004 TARRAGONA, ES",43004,ES,"43004, ES",41.11208395625,1.25090520625
"8017 BARCELONA, ES",8017,ES,"8017, ES",37.7061762,-2.9351876
"29670 SAN PEDRO DE ALCANTARA, ES",29670,ES,"29670, ES",36.48422193043478,-4.990018386956522
"23400 UBEDA, ES",23400,ES,"23400, ES",38.013503065494334,-3.372852961723329
"28970 HUMANES DE MADRID, ES",28970,ES,"28970, ES",40.26176723477443,-3.8219014005325818
"28022 MADRID, ES",28022,ES,"28022, ES",40.43622689287672,-3.6050101016438356
"08029 BARCELONA, ES",08029,ES,"08029, ES",41.38664710327586,2.146568526724138
"29620 Torremolinos, ES",29620,ES,"29620, ES",36.62016709550562,-4.5022912132022475
"8017 BARCELONA, ES",8017,ES,"8017, ES",37.7061762,-2.9351876
"7958 RV KOEKANGE, NL",7958,NL,"7958, NL",52.712416215384614,6.310528061538462
"36205 Vigo - Pontevedra, ES",36205,ES,"36205, ES",42.2292746,-8.703446079069767
"43004 TARRAGONA, ES",43004,ES,"43004, ES",41.11208395625,1.25090520625
"08201 SABADELL, ES",08201,ES,"08201, ES",41.54678282173913,2.1062179782608696
"43004 TARRAGONA, ES",43004,ES,"43004, ES",41.11208395625,1.25090520625
"43004 TARRAGONA, ES",43004,ES,"43004, ES",41.11208395625,1.25090520625
"29601 MARBELLA, ES",29601,ES,"29601, ES",36.51175110102041,-4.884151649339736
"02003 ALBACETE, ES",02003,ES,"02003, ES",38.98870735,-1.8611206780301757
"8173 SANT CUGAT DEL VALLÈS, ES",8173,ES,"8173, ES",41.4728432,2.0817809
"8017 BARCELONA, ES",8017,ES,"8017, ES",37.7061762,-2.9351876
"29001 MALAGA, ES",29001,ES,"29001, ES",36.71584576951984,-4.423314822338205
"29004 Málaga, ES",29004,ES,"29004, ES",36.68495975258412,-4.467507040959588
"36214 Vigo, ES",36214,ES,"36214, ES",42.22119936666667,-8.70024738
"36619 VILLAGARCÍA DE AROSA, ES",36619,ES,"36619, ES",42.5836789,-8.741526
"28670 VILLAVICIOSA DE ODÓN, ES",28670,ES,"28670, ES",40.356072100520834,-3.9036976963541665
"08430 ROCA DEL VALLES, ES",08430,ES,"08430, ES",41.59357721818182,2.324779609090909
"08918 BADALONA, ES",08918,ES,"08918, ES",41.4336421422619,2.227188220952381
"08029 BARCELONA, ES",08029,ES,"08029, ES",41.38664710327586,2.146568526724138
"37008 SALAMANCA, ES",37008,ES,"37008, ES",40.95187947649212,-5.678820320411036
"28703 SAN SEBASTIAN DE LOS REYES, ES",28703,ES,"28703, ES",40.54978938095238,-3.6186351714285716
"08918 Badalona, ES",08918,ES,"08918, ES",41.4336421422619,2.227188220952381
"43800 VALLS, ES",43800,ES,"43800, ES",41.29052434924012,1.2521721908814591
"03581 Alfaz Del Pi, ES",03581,ES,"03581, ES",38.57134913333333,-0.06966496666666666
"11500 EL PUERTO DE SANTA MARÍA, ES",11500,ES,"11500, ES",36.59624643,-6.23112727
"3670 Meeuwen-Gruitrode, BE",3670,BE,"3670, BE",36.59624643,-6.23112727
"28970 HUMANES DE MADRID, ES",28970,ES,"28970, ES",40.26176723477443,-3.8219014005325818
"28670 VILLAVICIOSA DE ODÓN,  ",28670,ES,"28670, ES",40.3573787,-3.9002334
"28900 LEGANES, ES",28900,ES,"28900, ES",40.3281942,-3.76527
"28970 HUMANES DE MADRID, ES",28970,ES,"28970, ES",40.26176723477443,-3.8219014005325818
"29004 Málaga, ES",29004,ES,"29004, ES",36.68495975258412,-4.467507040959588
"8403 GRANOLLERS, ES",8403,ES,"8403, ES",41.6079555,2.2876008
"28027 MADRID, ES",28027,ES,"28027, ES",40.438865962515415,-3.6447627393752566
"28036 MADRID, ES",28036,ES,"28036, ES",40.478148291705075,-3.6673647858678953
"48970 BILBAO, ES",48970,ES,"48970, ES",43.2630018,-2.9350039
"28939 ARROYOMOLINOS, ES",28939,ES,"28939, ES",40.27836419183673,-3.9166159183673472
"28050 MADRID, ES",28050,ES,"28050, ES",40.492764497557474,-3.6617469369252875
"36214 Vigo, ES",36214,ES,"36214, ES",42.22119936666667,-8.70024738
"43004 TARRAGONA, ES",43004,ES,"43004, ES",41.11208395625,1.25090520625
"28703 San Sebastián de los Reyes, ES",28703,ES,"28703, ES",40.54978938095238,-3.6186351714285716
"28806 ALCALA DE HENARES, ES",28806,ES,"28806, ES",40.49969566485623,-3.371292825878594
"28022 MADRID, ES",28022,ES,"28022, ES",40.43622689287672,-3.6050101016438356
"28947 FUENLABRADA, ES",28947,ES,"28947, ES",40.26731465,-3.7514515714285714
"08029 BARCELONA, ES",08029,ES,"08029, ES",41.38664710327586,2.146568526724138
"08026 BARCELONA, ES",08026,ES,"08026, ES",41.41182737801494,2.185389164674493
"8903 SANT ADRIÀ DE BESÒS, ES",8903,ES,"8903, ES",41.4304832,2.2182775
"11407, ES",11407,ES,"11407, ES",36.70174105833333,-6.128656683333333
"11407, ES",11407,ES,"11407, ES",36.70174105833333,-6.128656683333333
"08760 MARTORELL, ES",08760,ES,"08760, ES",41.47569301632653,1.9253011653061225
"28970 HUMANES DE MADRID, ES",28970,ES,"28970, ES",40.26176723477443,-3.8219014005325818
"29001 MALAGA, ES",29001,ES,"29001, ES",36.71584576951984,-4.423314822338205
"08029 BARCELONA, ES",08029,ES,"08029, ES",41.38664710327586,2.146568526724138
"23600 MARTOS, ES",23600,ES,"23600, ES",37.71842748481013,-3.970622962025317
"28806 ALCALA DE HENARES, ES",28806,ES,"28806, ES",40.49969566485623,-3.371292825878594
"28522 RIVAS VACIA MADRID, ES",28522,ES,"28522, ES",40.49969566485623,-3.371292825878594
"28022 MADRID, ES",28022,ES,"28022, ES",40.43622689287672,-3.6050101016438356
"37008 SALAMANCA, ES",37008,ES,"37008, ES",40.95187947649212,-5.678820320411036
"28500 ARGANDA DEL REY, ES",28500,ES,"28500, ES",40.30739136554622,-3.4537147966386557
"30836 MURCIA, ES",30836,ES,"30836, ES",41.7212475,-1.0291324
"28043 MADRID, ES",28043,ES,"28043, ES",40.46215373079019,-3.6381815811989098
"46190 RIBA-ROJA DE TÚRIA, ES",46190,ES,"46190, ES",39.538923819354835,-0.5657088258064515
"41007 SEVILLA, ES",41007,ES,"41007, ES",37.39519904647887,-5.960063516901408
"36861 PONTEAREAS, ES",36861,ES,"36861, ES",42.1796894,-8.5302439
"28970 HUMANES DE MADRID, ES",28970,ES,"28970, ES",40.26176723477443,-3.8219014005325818
"36214 Vigo, ES",36214,ES,"36214, ES",42.22119936666667,-8.70024738
"28027 MADRID, ES",28027,ES,"28027, ES",40.438865962515415,-3.6447627393752566
"28906 GETAFE, ES",28906,ES,"28906, ES",40.313211111267606,-3.698521677464788
"41710 UTRERA, ES",41710,ES,"41710, ES",37.18708305833333,-5.785041241666667
"08026 BARCELONA, ES",08026,ES,"08026, ES",41.41182737801494,2.185389164674493
"8903 SANT ADRIÀ DE BESÒS, ES",8903,ES,"8903, ES",41.4304832,2.2182775
"08400 Granollers, ES",08400,ES,"08400, ES",41.60367855,2.28258305
"15930 BOIRO, ES",15930,ES,"15930, ES",42.644468558,-8.883391292
"28977 CASARRUBUELOS, ES",28977,ES,"28977, ES",40.17162138,-3.82542705
"39600 Maliaño, ES",39600,ES,"39600, ES",43.41845,-3.83623
"28051 MADRID, ES",28051,ES,"28051, ES",40.36354208351254,-3.6006957451612904
"30100 MURCIA, ES",30100,ES,"30100, ES",38.012760175,-1.1621978125
"48970 BILBAO, ES",48970,ES,"48970, ES",43.2630018,-2.9350039
"08500 VIC,  ",08500,ES,"08500, ES",41.9302021,2.2545943
"8017 BARCELONA, ES",8017,ES,"8017, ES",37.7061762,-2.9351876
"28231 LAS ROZAS DE MADRID, ES",28231,ES,"28231, ES",40.494648777777776,-3.872806318518519
"28850 TORREJON DE ARDOZ, ES",28850,ES,"28850, ES",40.44458106799141,-3.4766363424274975
"28970 HUMANES DE MADRID, ES",28970,ES,"28970, ES",40.26176723477443,-3.8219014005325818
"29660 PUERTO BANÚS, ES",29660,ES,"29660, ES",40.26176723477443,-3.8219014005325818
"33920 LANGREO, ES",33920,ES,"33920, ES",43.32746367222222,-5.720051394444445
"33460 AVILES, ES",33460,ES,"33460, ES",43.5497636625,-5.9037036625
"29004 Málaga, ES",29004,ES,"29004, ES",36.68495975258412,-4.467507040959588
"12004 CASTELLON, ES",12004,ES,"12004, ES",39.994726475,-0.03661374444444444
"45518 GERINDOTE, ES",45518,ES,"45518, ES",39.9655586,-4.3022455
"29001 MALAGA, ES",29001,ES,"29001, ES",36.71584576951984,-4.423314822338205
"8870 Izegem, BE",8870,BE,"8870, BE",50.91953734792099,3.215220843139293
"97076 Würzburg, DE",97076,DE,"97076, DE",49.80477264773895,9.983800725693731
"15537 Erkner, DE",15537,DE,"15537, DE",52.4166402,13.7553552
"12529 Schönefeld, DE",12529,DE,"12529, DE",52.3644747,13.5100381
"12103 Berlin, DE",12103,DE,"12103, DE",52.4687127,13.3844306
"8210 Loppem, BE",8210,BE,"8210, BE",51.147465916875,3.175987711875
"12529 Schönefeld, DE",12529,DE,"12529, DE",52.3644747,13.5100381
"67346 Speyer, DE",67346,DE,"67346, DE",49.3216941,8.4330906
"12103 Berlin, DE",12103,DE,"12103, DE",52.4687127,13.3844306
"47249 Duisburg, DE",47249,DE,"47249, DE",51.3805366,6.7462948
"81829 München, DE",81829,DE,"81829, DE",48.143844,11.6796295
"85276 Pfaffenhofen an der Ilm, DE",85276,DE,"85276, DE",48.528554999913595,11.501144986549539
"85276 Pfaffenhofen an der Ilm, DE",85276,DE,"85276, DE",48.528554999913595,11.501144986549539
"06842 Dessau, DE",06842,DE,"06842, DE",51.8393477,12.2529862
"15517 Fürstenwalde, DE",15517,DE,"15517, DE",52.358671344984664,14.065135161808476
"85521 Ottobrunn / Riemerling, DE",85521,DE,"85521, DE",48.0645413,11.7002949
"73084 Salach, DE",73084,DE,"73084, DE",48.69252630761607,9.739360875586854
"53359 Rheinbach, DE",53359,DE,"53359, DE",50.6194679,6.944975
"86343 Königsbrunn, DE",86343,DE,"86343, DE",48.2676426,10.8963
"34123 Kassel, DE",34123,DE,"34123, DE",51.3037551,9.5494648
"3960 Bree, BE",3960,BE,"3960, BE",51.13589070574033,5.610660560205977
"84030 Ergolding, DE",84030,DE,"84030, DE",48.56364563723161,12.15945404029237
"12005 CASTELLON, ES",12005,ES,"12005, ES",39.97701341538461,-0.04151971538461539
"12103 Berlin, DE",12103,DE,"12103, DE",52.4687127,13.3844306
"37184 VILLARES DE LA REINA, ES",37184,ES,"37184, ES",41.00472409595449,-5.648548788685209
"79111 Freiburg, DE",79111,DE,"79111, DE",47.9814629,7.7957894
"79111 Freiburg, DE",79111,DE,"79111, DE",47.9814629,7.7957894
"6240 Farciennes, BE",6240,BE,"6240, BE",50.430496475,4.5423485125
"40472 Düsseldorf, DE",40472,DE,"40472, DE",51.2731748,6.8330067
"71332 Waiblingen, DE",71332,DE,"71332, DE",48.826377,9.3008194
"45309 Essen, DE",45309,DE,"45309, DE",51.47937293185773,7.066889833930398
"86343 Königsbrunn, DE",86343,DE,"86343, DE",48.2676426,10.8963
"45472 Mülheim an der Ruhr, DE",45472,DE,"45472, DE",51.43298366689178,6.935204162770563
"12103 Berlin, DE",12103,DE,"12103, DE",52.4687127,13.3844306
"14513 Teltow, DE",14513,DE,"14513, DE",52.3982517,13.251346
"8770 Ingelmunster, BE",8770,BE,"8770, BE",50.923243526586106,3.269692504531722
"53424 Remagen-Rolandseck, DE",53424,DE,"53424, DE",50.923243526586106,3.269692504531722
"71332 Waiblingen, DE",71332,DE,"71332, DE",48.826377,9.3008194
"12103 Berlin, DE",12103,DE,"12103, DE",52.4687127,13.3844306
"84069 Schierling, DE",84069,DE,"84069, DE",48.8404433,12.1856201
"8902 HOSPITALET DE LLOBREGAT, ES",8902,ES,"8902, ES",41.3598601,2.0997927
"52511 Geilenkirchen, DE",52511,DE,"52511, DE",50.97046612412116,6.124572608478886
"2870 Puurs, BE",2870,BE,"2870, BE",51.062399952678575,4.292666100892857
"3600 ELDA, ES",3600,ES,"3600, ES",38.4789671,-0.7956759
"49393 Lohne, DE",49393,DE,"49393, DE",52.6613637,8.2045672
"59425 Unna, DE",59425,DE,"59425, DE",51.5412089,7.7376805
"2400 Mol (Antwerpen-Leuven-Turnhout- Hasselt), BE",2400,BE,"2400, BE",51.5412089,7.7376805
"86707 Westendorf, DE",86707,DE,"86707, DE",48.573687051111115,10.839039800740741
"45472 Mülheim an der Ruhr, DE",45472,DE,"45472, DE",51.43298366689178,6.935204162770563
"79111 Freiburg, DE",79111,DE,"79111, DE",47.9814629,7.7957894
"12107 Berlin, DE",12107,DE,"12107, DE",52.4335813,13.3903253
"41540 Dormagen, DE",41540,DE,"41540, DE",51.0597589,6.8140788
"65462 Ginsheim-Gustavburg, DE",65462,DE,"65462, DE",51.0597589,6.8140788
"79111 Freiburg, DE",79111,DE,"79111, DE",47.9814629,7.7957894
"14554 Seddiner See, DE",14554,DE,"14554, DE",52.27665383036972,13.003784427200705
"14513 Teltow, DE",14513,DE,"14513, DE",52.3982517,13.251346
"12529 Schönefeld OT/Großziehten, DE",12529,DE,"12529, DE",52.3982517,13.251346
"12305 Berlin, DE",12305,DE,"12305, DE",52.398156,13.3904352
"12351 Berlin, DE",12351,DE,"12351, DE",52.434474,13.4695587
"28703 San Sebastián de los Reyes, ES",28703,ES,"28703, ES",40.54978938095238,-3.6186351714285716
"63814 Mainaschaff (bei Aschaffenburg), DE",63814,DE,"63814, DE",40.54978938095238,-3.6186351714285716
"50180 UTEBO, ES",50180,ES,"50180, ES",41.70501440555556,-1.001538061111111
"06842 Dessau, DE",06842,DE,"06842, DE",51.8393477,12.2529862
"88239 Wangen im Allgäu, DE",88239,DE,"88239, DE",47.6806295463083,9.81392927887747
"7100 La Louvière, BE",7100,BE,"7100, BE",50.479487,4.1852682
"29004 MALAGA, ES",29004,ES,"29004, ES",36.68495975258412,-4.467507040959588
"34123 Kassel, DE",34123,DE,"34123, DE",51.3037551,9.5494648
"01662 Meißen, DE",01662,DE,"01662, DE",51.16075606154274,13.478242953402559
"58119 Hagen - Hohenlimburg, DE",58119,DE,"58119, DE",51.3492909,7.5723112
"76189 Karlsruhe, DE",76189,DE,"76189, DE",48.9890564,8.3639802
"76185 Karlsruhe, DE",76185,DE,"76185, DE",49.010636,8.3600875
"71332 Waiblingen, DE",71332,DE,"71332, DE",48.826377,9.3008194
"12487 Berlin, DE",12487,DE,"12487, DE",52.4427046,13.5019979
"22529 Hamburg, DE",22529,DE,"22529, DE",53.6032308,9.9450872
"46282 Dorsten, DE",46282,DE,"46282, DE",51.6579976,6.9667509
"12351 Berlin, DE",12351,DE,"12351, DE",52.434474,13.4695587
"45472 Mülheim an der Ruhr, DE",45472,DE,"45472, DE",51.43298366689178,6.935204162770563
"13599 Berlin, DE",13599,DE,"13599, DE",52.5439104,13.2386639
"68309 Mannheim, DE",68309,DE,"68309, DE",49.5079915,8.5480883
"79539 Lörrach, DE",79539,DE,"79539, DE",47.6175354,7.6601015
"94315 Straubing, DE",94315,DE,"94315, DE",48.8705249,12.5511108
"15517 Fürstenwalde, DE",15517,DE,"15517, DE",52.358671344984664,14.065135161808476
"06842 Dessau, DE",06842,DE,"06842, DE",51.8393477,12.2529862
"58706 Menden, DE",58706,DE,"58706, DE",51.43924446241362,7.792918973234451
"01277 Dresden, DE",01277,DE,"01277, DE",51.03732615059484,13.798790484335756
"59192 Bergkamen, DE",59192,DE,"59192, DE",51.6139695,7.6805994
"53359 Rheinbach, DE",53359,DE,"53359, DE",50.6194679,6.944975
"74564 Crailsheim, DE",74564,DE,"74564, DE",49.1387652,10.0641863
"42553 Velbert, DE",42553,DE,"42553, DE",51.3157028,7.1515626
"95632 Wunsiedel, DE",95632,DE,"95632, DE",50.039299007091664,12.004376569747265
"45309 Essen, DE",45309,DE,"45309, DE",51.47937293185773,7.066889833930398
"30855 Langenhagen / Kaltenweide, DE",30855,DE,"30855, DE",52.4797506,9.7357451
"38350 Helmstedt, DE",38350,DE,"38350, DE",52.2223351,11.0104408
"15517 Fürstenwalde, DE",15517,DE,"15517, DE",52.358671344984664,14.065135161808476
"33100 Paderborn, DE",33100,DE,"33100, DE",51.7086343,8.7811176
"95632 Wunsiedel, DE",95632,DE,"95632, DE",50.039299007091664,12.004376569747265
"38122 Braunschweig, DE",38122,DE,"38122, DE",52.2344011,10.4824971
"55128 Mainz, DE",55128,DE,"55128, DE",49.9924583,8.2347967
"08203 SABADELL, ES",08203,ES,"08203, ES",41.5360496875,2.11500818125
"58706 Menden, DE",58706,DE,"58706, DE",51.43924446241362,7.792918973234451
"85276 Pfaffenhofen, DE",85276,DE,"85276, DE",48.528554999913595,11.501144986549539
"4432 Alleur, BE",4432,BE,"4432, BE",50.6742549,5.5129926
"45309 Essen, DE",45309,DE,"45309, DE",51.47937293185773,7.066889833930398
"58706 Menden, DE",58706,DE,"58706, DE",51.43924446241362,7.792918973234451
"58285 Gevelsberg, DE",58285,DE,"58285, DE",51.3322741,7.3755113
"47058 Duisburg, DE",47058,DE,"47058, DE",51.4337295,6.7903074
"95632 Wunsiedel, DE",95632,DE,"95632, DE",50.039299007091664,12.004376569747265
"36251 Bad Hersfeld, DE",36251,DE,"36251, DE",50.8687504,9.7090821
"22529 Hamburg, DE",22529,DE,"22529, DE",53.6032308,9.9450872
"92224 Amberg, DE",92224,DE,"92224, DE",49.4324597,11.848674
"15537 Erkner, DE",15537,DE,"15537, DE",52.4166402,13.7553552
"13581 Berlin, DE",13581,DE,"13581, DE",52.5331816,13.1630963
"49377 Vechta, DE",49377,DE,"49377, DE",52.7284701,8.2855479
"41844 Wegberg, DE",41844,DE,"41844, DE",51.13377905,6.282868334190502
"12103 Berlin, DE",12103,DE,"12103, DE",52.4687127,13.3844306
"06842 Dessau-Roßlau, DE",06842,DE,"06842, DE",51.8285222,12.2426578
"97424 Schweinfurt, DE",97424,DE,"97424, DE",50.0342269,10.2320914
"9990 Maldegem, BE",9990,BE,"9990, BE",51.20005815144928,3.4464107782608697
"95632 Wunsiedel, DE",95632,DE,"95632, DE",50.039299007091664,12.004376569747265
"55129 Mainz, DE",55129,DE,"55129, DE",49.951645646888046,8.26948209940346
"58706 Menden, DE",58706,DE,"58706, DE",51.43924446241362,7.792918973234451
"68309 Mannheim, DE",68309,DE,"68309, DE",49.5079915,8.5480883
"77656 Offenburg, DE",77656,DE,"77656, DE",48.4648208,7.9321785
"68309 Mannheim, DE",68309,DE,"68309, DE",49.5079915,8.5480883
"9160 Lokeren, BE",9160,BE,"9160, BE",51.11260812619048,3.9872444809523806
"3770 EL VERGEL, ES",3770,ES,"3770, ES",40.502007,-2.8340316
"44789 Bochum, DE",44789,DE,"44789, DE",51.4712159,7.2278826
"01662 Meißen, DE",01662,DE,"01662, DE",51.16075606154274,13.478242953402559
"26203 Wardenburg, DE",26203,DE,"26203, DE",53.07403015369515,8.18424242482679
"2590 Berlaar, BE",2590,BE,"2590, BE",51.10658737733559,4.654266350885707
"34123 Kassel, DE",34123,DE,"34123, DE",51.3037551,9.5494648
"8400 Granollers, ES",8400,ES,"8400, ES",41.6079555,2.2876008
"28021 MADRID, ES",28021,ES,"28021, ES",40.347191313347025,-3.704408644969199
"12305 Berlin, DE",12305,DE,"12305, DE",52.398156,13.3904352
"67141 Neuhofen, DE",67141,DE,"67141, DE",49.423301851598744,8.423678967836992
"8790 Waregem, BE",8790,BE,"8790, BE",50.88257546305163,3.423257735424979
"68309 Mannheim, DE",68309,DE,"68309, DE",49.5079915,8.5480883
"10553 Berlin, DE",10553,DE,"10553, DE",52.5276034,13.3274821
"53359 Rheinbach, DE",53359,DE,"53359, DE",50.6194679,6.944975
"13353 Berlin, DE",13353,DE,"13353, DE",52.5437099,13.3635985
"14005 CORDOBA, ES",14005,ES,"14005, ES",37.88376455748032,-4.796790641732284
"10553 Berlin, DE",10553,DE,"10553, DE",52.5276034,13.3274821
"56077 Koblenz, DE",56077,DE,"56077, DE",50.3600616,7.6110352
"74076 Heilbronn, DE",74076,DE,"74076, DE",49.15115067903349,9.229437030299158
"06847 Dessau, DE",06847,DE,"06847, DE",51.7990411,12.1852815
"51067 Köln, DE",51067,DE,"51067, DE",50.967719083270055,7.042883509776933
"94034 Passau, DE",94034,DE,"94034, DE",48.5781891,13.4714358
"51149 Köln, DE",51149,DE,"51149, DE",50.9047822,7.0779071
"97424 Schweinfurt, DE",97424,DE,"97424, DE",50.0342269,10.2320914
"12529 Schönefeld OT/Großziehten, DE",12529,DE,"12529, DE",50.0342269,10.2320914
"45127 Essen, DE",45127,DE,"45127, DE",51.45209,7.0112799
"45309 Essen, DE",45309,DE,"45309, DE",51.47937293185773,7.066889833930398
"59759 Arnsberg, DE",59759,DE,"59759, DE",51.42856443617424,7.9968627428842
"47249 Duisburg, DE",47249,DE,"47249, DE",51.3805366,6.7462948
"12529 Schönefeld, DE",12529,DE,"12529, DE",52.3644747,13.5100381
"96052 Bamberg, DE",96052,DE,"96052, DE",49.8990385,10.8992743
"59759 Arnsberg, DE",59759,DE,"59759, DE",51.42856443617424,7.9968627428842
"88690 Uhldingen-Mühlhofen, DE",88690,DE,"88690, DE",47.732021572691636,9.247062452874566
"50858 Köln-Marsdorf, DE",50858,DE,"50858, DE",50.9287709,6.8561287
"68309 Mannheim, DE",68309,DE,"68309, DE",49.5079915,8.5480883
"75179 Pforzheim, DE",75179,DE,"75179, DE",48.896063,8.6914917
"59759 Arnsberg, DE",59759,DE,"59759, DE",51.42856443617424,7.9968627428842
"20305 IRUN, ES",20305,ES,"20305, ES",43.33400852776649,-1.8015747338071066
"65366 Geisenheim, DE",65366,DE,"65366, DE",49.99648143346799,7.96510872843381
"03203 ELCHE, ES",03203,ES,"03203, ES",38.292400505607475,-0.6182508415887851
"67346 Speyer, DE",67346,DE,"67346, DE",49.3216941,8.4330906
"55128 Mainz, DE",55128,DE,"55128, DE",49.9924583,8.2347967
"28021 MADRID, ES",28021,ES,"28021, ES",40.347191313347025,-3.704408644969199
"85386 Eching, DE",85386,DE,"85386, DE",48.3026138,11.6149045
"41352 Korschenbroich, DE",41352,DE,"41352, DE",51.192342,6.5163612
"38110 Braunschweig, DE",38110,DE,"38110, DE",52.3178135,10.5280839
"49847 Itterbeck, DE",49847,DE,"49847, DE",52.50147077586207,6.800771655172413
"79111 Freiburg, DE",79111,DE,"79111, DE",47.9814629,7.7957894
"68519 Viernheim, DE",68519,DE,"68519, DE",49.5273541,8.5651852
"06842 Dessau, DE",06842,DE,"06842, DE",51.8393477,12.2529862
"38644 Goslar, DE",38644,DE,"38644, DE",51.8657926,10.3372399
"66822 Lebach, DE",66822,DE,"66822, DE",49.42469751390728,6.9254382764679905
"53359 Rheinbach, DE",53359,DE,"53359, DE",50.6194679,6.944975
"38122 Braunschweig, DE",38122,DE,"38122, DE",52.2344011,10.4824971
"8400 Granollers, ES",8400,ES,"8400, ES",41.6079555,2.2876008
"84069 Schierling, DE",84069,DE,"84069, DE",48.8404433,12.1856201
"49124 Georgsmarienhütte, DE",49124,DE,"49124, DE",52.2059719,8.0654905
"84069 Schierling, DE",84069,DE,"84069, DE",48.8404433,12.1856201
"06861 Dessau-Roßlau, DE",06861,DE,"06861, DE",51.89375129039301,12.203800867685588
"55128 Mainz, DE",55128,DE,"55128, DE",49.9924583,8.2347967
"94315 Straubing, DE",94315,DE,"94315, DE",48.8705249,12.5511108
"34123 Kassel, DE",34123,DE,"34123, DE",51.3037551,9.5494648
"84056 Rottenburg, DE",84056,DE,"84056, DE",48.72025993580786,12.049923641921398
"69469 Weinheim, DE",69469,DE,"69469, DE",49.5207852,8.698667
"97424 Schweinfurt, DE",97424,DE,"97424, DE",50.0342269,10.2320914
"53359 Rheinbach, DE",53359,DE,"53359, DE",50.6194679,6.944975
"84069 Schierling, DE",84069,DE,"84069, DE",48.8404433,12.1856201
"94315 Straubing, DE",94315,DE,"94315, DE",48.8705249,12.5511108
"84069 Schierling, DE",84069,DE,"84069, DE",48.8404433,12.1856201
"14513 Teltow, DE",14513,DE,"14513, DE",52.3982517,13.251346
"22529 Hamburg, DE",22529,DE,"22529, DE",53.6032308,9.9450872
"28021 MADRID, ES",28021,ES,"28021, ES",40.347191313347025,-3.704408644969199
"25337 Elmshorn, DE",25337,DE,"25337, DE",53.7444398,9.7033825
"47807 Krefeld, DE",47807,DE,"47807, DE",51.3109963,6.5595975
"38122 Braunschweig, DE",38122,DE,"38122, DE",52.2344011,10.4824971
"56077 Koblenz, DE",56077,DE,"56077, DE",50.3600616,7.6110352
"92224 Amberg, DE",92224,DE,"92224, DE",49.4324597,11.848674
"44579 Castrop-Rauxel, DE",44579,DE,"44579, DE",51.5699649,7.3003092
"79539 Lörrach, DE",79539,DE,"79539, DE",47.6175354,7.6601015
"71332 Waiblingen, DE",71332,DE,"71332, DE",48.826377,9.3008194
"85748 Garching bei München, DE",85748,DE,"85748, DE",48.24930381856677,11.64632372970684
"67346 Speyer, DE",67346,DE,"67346, DE",49.3216941,8.4330906
"45309 Essen, DE",45309,DE,"45309, DE",51.47937293185773,7.066889833930398
"39576 Stendal, DE",39576,DE,"39576, DE",52.6249369,11.8450396
"70736 Fellbach, DE",70736,DE,"70736, DE",48.8155778,9.25955
"46600 ALZIRA, ES",46600,ES,"46600, ES",39.150311122195056,-0.4373077194512361
"84069 Schierling, DE",84069,DE,"84069, DE",48.8404433,12.1856201
"69469 Weinheim, DE",69469,DE,"69469, DE",49.5207852,8.698667
"30916 Isernhagen, DE",30916,DE,"30916, DE",52.4341763,9.8601385
"38644 Goslar, DE",38644,DE,"38644, DE",51.8657926,10.3372399
"45309 Essen, DE",45309,DE,"45309, DE",51.47937293185773,7.066889833930398
"06847 Dessau, DE",06847,DE,"06847, DE",51.7990411,12.1852815
"53359 Rheinbach, DE",53359,DE,"53359, DE",50.6194679,6.944975
"37079 Göttingen, DE",37079,DE,"37079, DE",51.5274699,9.8821752
"34123 Kassel, DE",34123,DE,"34123, DE",51.3037551,9.5494648
"39638 Gardelegen, DE",39638,DE,"39638, DE",52.5053096,11.287146
"53359 Rheinbach, DE",53359,DE,"53359, DE",50.6194679,6.944975
"8400 Granollers, ES",8400,ES,"8400, ES",41.6079555,2.2876008
"53359 Rheinbach, DE",53359,DE,"53359, DE",50.6194679,6.944975
"53359 Rheinbach, DE",53359,DE,"53359, DE",50.6194679,6.944975
"81827 München, DE",81827,DE,"81827, DE",48.1115924,11.7090824
"29614 Soltau, DE",29614,DE,"29614, DE",52.9798144,9.7582304
"72525 Münsingen, DE",72525,DE,"72525, DE",48.4087162,9.4933477
"53359 Rheinbach, DE",53359,DE,"53359, DE",50.6194679,6.944975
"53359 Rheinbach, DE",53359,DE,"53359, DE",50.6194679,6.944975
"79111 Freiburg, DE",79111,DE,"79111, DE",47.9814629,7.7957894
"94315 Straubing, DE",94315,DE,"94315, DE",48.8705249,12.5511108
"12683 Berlin, DE",12683,DE,"12683, DE",52.5172646,13.5554189
"53359 Rheinbach, DE",53359,DE,"53359, DE",50.6194679,6.944975
"33758 Schloß Holte-Stukenbrock, DE",33758,DE,"33758, DE",51.9155697,8.6634254
"33758 Schloß Holte-Stukenbrock, DE",33758,DE,"33758, DE",51.9155697,8.6634254
"84056 Rottenburg, DE",84056,DE,"84056, DE",48.72025993580786,12.049923641921398
"84069 Schierling, DE",84069,DE,"84069, DE",48.8404433,12.1856201
"84069 Schierling, DE",84069,DE,"84069, DE",48.8404433,12.1856201
"33100 Paderborn, DE",33100,DE,"33100, DE",51.7086343,8.7811176
"84069 Schierling, DE",84069,DE,"84069, DE",48.8404433,12.1856201
"84069 Schierling, DE",84069,DE,"84069, DE",48.8404433,12.1856201
"39576 Stendal, DE",39576,DE,"39576, DE",52.6249369,11.8450396
"12529 Schönefeld, DE",12529,DE,"12529, DE",52.3644747,13.5100381
"99817 Eisenach, DE",99817,DE,"99817, DE",50.9753168,10.3251402
"38122 Braunschweig, DE",38122,DE,"38122, DE",52.2344011,10.4824971
"30916 Isernhagen, DE",30916,DE,"30916, DE",52.4341763,9.8601385
"65201 Wiesbaden, DE",65201,DE,"65201, DE",50.0456461,8.1955153
"3770 EL VERGEL, ES",3770,ES,"3770, ES",40.502007,-2.8340316
"33758 Schloß Holte-Stukenbrock, DE",33758,DE,"33758, DE",51.9155697,8.6634254
"6200 Chatelineau, BE",6200,BE,"6200, BE",50.4155938,4.5179328
"64319 Pfungstadt, DE",64319,DE,"64319, DE",49.80300536861232,8.591484254992764
"7500 Tournai, BE",7500,BE,"7500, BE",50.607816770625,3.3908318693402775
"39011 SANTANDER, ES",39011,ES,"39011, ES",43.44973170047627,-3.854253470437149
"1000 Brussel, BE",1000,BE,"1000, BE",50.86188435,4.352997939561595
"4500 Huy, BE",4500,BE,"4500, BE",50.52016878012048,5.241537151807229
"67435 Neustadt/Wstr., Ortsteil Lachen-Speyerdorf, DE",67435,DE,"67435, DE",50.52016878012048,5.241537151807229
"75116 PARIS, FR",75116,FR,"75116, FR",48.86653158080808,2.2823140888888886
"81243 München, DE",81243,DE,"81243, DE",48.1440426,11.4524721
"5154 PH ELSHOUT, NL",5154,NL,"5154, NL",51.69874362142858,5.148784614285714
"26129 Oldenburg, DE",26129,DE,"26129, DE",53.14662596819993,8.168471950488954
"51643 Gummersbach-Niederseßmar, DE",51643,DE,"51643, DE",53.14662596819993,8.168471950488954
"5349 AK OSS, NL",5349,NL,"5349, NL",51.763790069473686,5.548794731578948
"3500 Hasselt, BE",3500,BE,"3500, BE",50.92928774845785,5.3266594075394105
"14612 Falkensee, DE",14612,DE,"14612, DE",52.5709902,13.1305691
"75018 PARIS, FR",75018,FR,"75018, FR",48.88893922567146,2.3436208162398504
"4571 LK AXEL, NL",4571,NL,"4571, NL",51.27199738333333,3.9091468055555554
"52511 Geilenkirchen, DE",52511,DE,"52511, DE",50.97046612412116,6.124572608478886
"6221 VA MAASTRICHT, NL",6221,NL,"6221, NL",50.84651260384616,5.706640336538461
"3500 Hasselt, BE",3500,BE,"3500, BE",50.92928774845785,5.3266594075394105
"50126 Bergheim, DE",50126,DE,"50126, DE",50.95581065653657,6.62902042032967
"20900 Monza - Monza  Brianza - Mb, IT",20900,IT,"20900, IT",45.57977783893068,9.276089097326699
"1411 GD NAARDEN, NL",1411,NL,"1411, NL",52.2879758,5.1571451130434784
"4662 Steyrermühl, AT",4662,AT,"4662, AT",47.992055,13.8059584
"52382 Niederzier, DE",52382,DE,"52382, DE",50.87104471785415,6.462381517979883
"8331 TR STEENWIJK, NL",8331,NL,"8331, NL",52.77803443333333,6.100809533333334
"20146 Milano-MI, IT",20146,IT,"20146, IT",45.45706787205298,9.145745426357616
"20900 Monza - Monza  Brianza - Mb, IT",20900,IT,"20900, IT",45.57977783893068,9.276089097326699
"8490 Bad Radkersburg, AT",8490,AT,"8490, AT",46.694354169382024,15.993275623314608
"5175 AX LOON OP ZAND, NL",5175,NL,"5175, NL",51.627356454901964,5.0652646431372546
"20154 Milano - Mi, IT",20154,IT,"20154, IT",45.482965788081394,9.174258650072675
"44240 SUCE SUR ERDRE, FR",44240,FR,"44240, FR",47.341551,-1.5285694
"34266 Niestetal, DE",34266,DE,"34266, DE",51.308039154405286,9.569092709397944
"83059 Kolbermoor, DE",83059,DE,"83059, DE",47.84676533849947,12.054198276400141
"59067 Hamm, DE",59067,DE,"59067, DE",51.6695252,7.7956032
"87666 Pforzen, DE",87666,DE,"87666, DE",47.932147676110446,10.611397083433372
"59100 Prato – Po, IT",59100,IT,"59100, IT",43.87798894081376,11.10184218284396
"25135 Brescia - Bs, IT",25135,IT,"25135, IT",45.52024591621622,10.277446913513513
"5154 PH ELSHOUT, NL",5154,NL,"5154, NL",51.69874362142858,5.148784614285714
"25082 Botticino - Bs, IT",25082,IT,"25082, IT",45.54965404805195,10.311525583116882
"78464 Konstanz, DE",78464,DE,"78464, DE",47.6680914,9.1810546
"81929 München, DE",81929,DE,"81929, DE",48.1399812,11.6475963
"67433 Neustadt, DE",67433,DE,"67433, DE",49.3534467,8.1413572
"78850 THIVERVAL-GRIGNON, FR",78850,FR,"78850, FR",48.8427519375,1.936584225
"42016 Guastalla, IT",42016,IT,"42016, IT",44.91691968529412,10.656813914705882
"04279 Leipzig, DE",04279,DE,"04279, DE",51.3007947,12.3973239
"80044 Ottaviano  - Napoli, IT",80044,IT,"80044, IT",51.3007947,12.3973239
"7328 JK APELDOORN, NL",7328,NL,"7328, NL",52.20680339245283,5.982835611320755
"36022 Cassola - Vi, IT",36022,IT,"36022, IT",45.77013417777778,11.760556683333332
"6881 LJ VELP GLD, NL",6881,NL,"6881, NL",45.77013417777778,11.760556683333332
"40215 Düsseldorf, DE",40215,DE,"40215, DE",51.2186301,6.7803803
"93012 Gela - Caltanissetta - CL, IT",93012,IT,"93012, IT",37.07294802139304,14.235986392537313
"83140 Six-Fours-les-Plages, FR",83140,FR,"83140, FR",43.09861580469314,5.829875611913358
"60880 JAUX, FR",60880,FR,"60880, FR",49.386456535,2.7687699350000003
"07546 Gera, DE",07546,DE,"07546, DE",50.88521410987654,12.091346340559186
"07546 Gera, DE",07546,DE,"07546, DE",50.88521410987654,12.091346340559186
"76185 Karlsruhe, DE",76185,DE,"76185, DE",49.010636,8.3600875
"25135 Brescia - Bs, IT",25135,IT,"25135, IT",45.52024591621622,10.277446913513513
"9050 Gentbrugge, BE",9050,BE,"9050, BE",51.03681412815534,3.7507378759223307
"5281 RM BOXTEL, NL",5281,NL,"5281, NL",51.57808894,5.322262879999999
"5175 AX LOON OP ZAND, NL",5175,NL,"5175, NL",51.627356454901964,5.0652646431372546
"60700 Fleurines, FR",60700,FR,"60700, FR",49.2598706,2.586169
"29670 Marbella, ES",29670,ES,"29670, ES",36.48422193043478,-4.990018386956522
"64686 Lautertal, DE",64686,DE,"64686, DE",49.7151317,8.6923262
"00131 Roma - Rm, IT",00131,IT,"00131, IT",41.939072948,12.61093661
"3034 KE ROTTERDAM, NL",3034,NL,"3034, NL",51.942019089999995,4.49597215
"73457 Essingen (bei Aalen), DE",73457,DE,"73457, DE",51.942019089999995,4.49597215
"00163 Roma - RM, IT",00163,IT,"00163, IT",41.87274160555556,12.402219227777778
"20900 Monza - Monza  Brianza - Mb, IT",20900,IT,"20900, IT",45.57977783893068,9.276089097326699
"45309 Essen, DE",45309,DE,"45309, DE",51.47937293185773,7.066889833930398
"8029 BARCELONA, ES",8029,ES,"8029, ES",37.7061762,-2.9351876
"72348 Rosenfeld, DE",72348,DE,"72348, DE",48.2881952,8.7337895
"9461 VC GIETEN, NL",9461,NL,"9461, NL",52.99482672068965,6.7598656
"28232 LAS ROZAS, ES",28232,ES,"28232, ES",40.52786238551237,-3.9159138604240282
"81679 München, DE",81679,DE,"81679, DE",48.1425114,11.604704
"4240 Viator, ES",4240,ES,"4240, ES",36.8887282,-2.4251246
"1271 avenue de l'agachon,  ",1271,FR,"1271, FR",43.4352366,6.7276987
"7384 AC WILP, NL",7384,NL,"7384, NL",52.21623790294118,6.146550861764706
"15033 Casale Monferrato, IT",15033,IT,"15033, IT",45.13189312380952,8.458432922857144
"4700 Eupen, BE",4700,BE,"4700, BE",50.628218611778586,6.034883497767695
"2060 Antwerpen, BE",2060,BE,"2060, BE",51.228832,4.428345745195141
"5349 AK OSS, NL",5349,NL,"5349, NL",51.763790069473686,5.548794731578948
"38229 Salzgitter, DE",38229,DE,"38229, DE",52.1071222,10.3583244
"76185 Karlsruhe, DE",76185,DE,"76185, DE",49.010636,8.3600875
"85276 Pfaffenhofen an der Ilm, DE",85276,DE,"85276, DE",48.528554999913595,11.501144986549539
"5349 AK OSS, NL",5349,NL,"5349, NL",51.763790069473686,5.548794731578948
"9005 XS WERGEA, NL",9005,NL,"9005, NL",53.152005233333334,5.8555393
"1160 Bruxelles, BE",1160,BE,"1160, BE",50.8083884,4.438184014228536
"40789 Monheim am Rhein, DE",40789,DE,"40789, DE",51.0994336,6.9048095
"67435 Neustadt/Wstr., Ortsteil Lachen-Speyerdorf, DE",67435,DE,"67435, DE",51.0994336,6.9048095
"60325 Frankfurt, DE",60325,DE,"60325, DE",50.1166961,8.6530947
"6659 AJ WAMEL, NL",6659,NL,"6659, NL",51.88037967391304,5.483804434782608
"25135 Brescia - Bs, IT",25135,IT,"25135, IT",45.52024591621622,10.277446913513513
"7582 AG LOSSER, NL",7582,NL,"7582, NL",52.26338475,7.0001986625
"1110 Wien, AT",1110,AT,"1110, AT",48.1665121,16.411348
"6410 Telfs, AT",6410,AT,"6410, AT",47.313712378179105,11.074184987313433
"2132 XT HOOFDDORP, NL",2132,NL,"2132, NL",52.29224065,4.680650633333333
"16163 Genova - Ge, IT",16163,IT,"16163, IT",44.47905384,8.900228779999999
"74370 VILLAZ, FR",74370,FR,"74370, FR",46.7161727,6.945945
"4432 Alleur, BE",4432,BE,"4432, BE",50.6742549,5.5129926
"12247 Berlin - Steglitz, DE",12247,DE,"12247, DE",52.4445267,13.3553029
"59077 Hamm, DE",59077,DE,"59077, DE",51.6617529,7.7414691
"9810 Eke, BE",9810,BE,"9810, BE",50.9078719,3.822086
"38110 Braunschweig, DE",38110,DE,"38110, DE",52.3178135,10.5280839
"12006 CASTELLON, ES",12006,ES,"12006, ES",39.985580528571425,-0.05819954285714285
"70794 Filderstadt, DE",70794,DE,"70794, DE",48.66331055594534,9.219422353222855
"12353 Berlin, DE",12353,DE,"12353, DE",52.4207658,13.4778168
"12357 Berlin, DE",12357,DE,"12357, DE",52.4365725,13.4792625
"12529 Schönefeld, DE",12529,DE,"12529, DE",52.3644747,13.5100381
"46988 PATERNA, ES",46988,ES,"46988, ES",39.51112394,-0.46034147999999997
"69469 Weinheim, DE",69469,DE,"69469, DE",49.5207852,8.698667
"2580 Beerzel, BE",2580,BE,"2580, BE",51.0586177,4.6698925
"39576 Stendal, DE",39576,DE,"39576, DE",52.6249369,11.8450396
"03203 ELCHE, ES",03203,ES,"03203, ES",38.292400505607475,-0.6182508415887851
"68519 Viernheim, DE",68519,DE,"68519, DE",49.5273541,8.5651852
"45472 Mülheim an der Ruhr, DE",45472,DE,"45472, DE",51.43298366689178,6.935204162770563
"85276 Pfaffenhofen an der Ilm, DE",85276,DE,"85276, DE",48.528554999913595,11.501144986549539
"28983 PARLA, ES",28983,ES,"28983, ES",40.22392790179641,-3.756003126946108
"79108 Freiburg, DE",79108,DE,"79108, DE",48.0267403,7.8465924
"9160 Lokeren, BE",9160,BE,"9160, BE",51.11260812619048,3.9872444809523806
"33647 Bielefeld / Brackwede, DE",33647,DE,"33647, DE",51.9865365,8.5211502
"13353 Berlin, DE",13353,DE,"13353, DE",52.5437099,13.3635985
"21502 Geesthacht, DE",21502,DE,"21502, DE",53.4275143,10.3763915
"12005 CASTELLON, ES",12005,ES,"12005, ES",39.97701341538461,-0.04151971538461539
"73084 Salach, DE",73084,DE,"73084, DE",48.69252630761607,9.739360875586854
"38110 Braunschweig, DE",38110,DE,"38110, DE",52.3178135,10.5280839
"8210 Loppem, BE",8210,BE,"8210, BE",51.147465916875,3.175987711875
"38110 Braunschweig, DE",38110,DE,"38110, DE",52.3178135,10.5280839
"03203 ELCHE, ES",03203,ES,"03203, ES",38.292400505607475,-0.6182508415887851
"30100 ESPINARDO, ES",30100,ES,"30100, ES",38.0105743,-1.156217
"01237 Dresden, DE",01237,DE,"01237, DE",51.0116318,13.7933077
"47249 Duisburg, DE",47249,DE,"47249, DE",51.3805366,6.7462948
"6060 Charleroi, BE",6060,BE,"6060, BE",50.43230406925899,4.4919912902421135
"29004 P.I. SANTA BARBARA, ES",29004,ES,"29004, ES",50.43230406925899,4.4919912902421135
"59759 Arnsberg, DE",59759,DE,"59759, DE",51.42856443617424,7.9968627428842
"3960 Bree, BE",3960,BE,"3960, BE",51.13589070574033,5.610660560205977
"21502 Geesthacht, DE",21502,DE,"21502, DE",53.4275143,10.3763915
"71069 Sindelfingen-Darmsheim, DE",71069,DE,"71069, DE",53.4275143,10.3763915
"28947 FUENLABRADA, ES",28947,ES,"28947, ES",40.26731465,-3.7514515714285714
"28002 MADRID, ES",28002,ES,"28002, ES",40.444858156360574,-3.67403179620893
"28034 MADRID, ES",28034,ES,"28034, ES",40.49080290091463,-3.6964509394054876
"79589 Binzen, DE",79589,DE,"79589, DE",47.63029435166666,7.6185528950000005
"30007 CASILLAS, ES",30007,ES,"30007, ES",40.0640691,-6.6610449
"12103 Berlin, DE",12103,DE,"12103, DE",52.4687127,13.3844306
"23600 MARTOS, ES",23600,ES,"23600, ES",37.71842748481013,-3.970622962025317
"88690 Uhldingen-Mühlhofen, DE",88690,DE,"88690, DE",47.732021572691636,9.247062452874566
"15517 Fürstenwalde, DE",15517,DE,"15517, DE",52.358671344984664,14.065135161808476
"94481 Grafenau, DE",94481,DE,"94481, DE",48.8561317,13.396598
"59192 Bergkamen, DE",59192,DE,"59192, DE",51.6139695,7.6805994
"8530 Harelbeke, BE",8530,BE,"8530, BE",50.84742325508444,3.3120726170918675
"12351 Berlin, DE",12351,DE,"12351, DE",52.434474,13.4695587
"84337 Schönau, DE",84337,DE,"84337, DE",48.49676916666667,12.837801370000001
"36251 Bad Hersfeld, DE",36251,DE,"36251, DE",50.8687504,9.7090821
"2950 Kapellen, BE",2950,BE,"2950, BE",51.32891493372093,4.449302234883721
"8550 ZWEVEGEM, BE",8550,BE,"8550, BE",50.81647116626984,3.339828260714286
"12529 Schönefeld OT/Großziehten, DE",12529,DE,"12529, DE",50.81647116626984,3.339828260714286
"45127 Essen, DE",45127,DE,"45127, DE",51.45209,7.0112799
"4621 Fléron - Herstal - Liège, BE",4621,BE,"4621, BE",51.45209,7.0112799
"28043 MADRID, ES",28043,ES,"28043, ES",40.46215373079019,-3.6381815811989098
"13467 Berlin, DE",13467,DE,"13467, DE",52.6268164,13.3116676
"8029 BARCELONA, ES",8029,ES,"8029, ES",37.7061762,-2.9351876
"12529 Schönefeld, DE",12529,DE,"12529, DE",52.3644747,13.5100381
"45309 Essen, DE",45309,DE,"45309, DE",51.47937293185773,7.066889833930398
"3650 Dilsen-Stokkem, BE",3650,BE,"3650, BE",51.035120524237264,5.724854349469687
"8029 BARCELONA, ES",8029,ES,"8029, ES",37.7061762,-2.9351876
"21682 Stade, DE",21682,DE,"21682, DE",53.6141813,9.4719427
"79108 Freiburg, DE",79108,DE,"79108, DE",48.0267403,7.8465924
"31228 Peine, DE",31228,DE,"31228, DE",52.3263629,10.2089042
"46600 ALZIRA, ES",46600,ES,"46600, ES",39.150311122195056,-0.4373077194512361
"15517 Fürstenwalde, DE",15517,DE,"15517, DE",52.358671344984664,14.065135161808476
"13353 Berlin, DE",13353,DE,"13353, DE",52.5437099,13.3635985
"46286 Dorsten Wulfen, DE",46286,DE,"46286, DE",51.720899,7.0154572
"15537 Erkner, DE",15537,DE,"15537, DE",52.4166402,13.7553552
"13353 Berlin, DE",13353,DE,"13353, DE",52.5437099,13.3635985
"97076 Würzburg, DE",97076,DE,"97076, DE",49.80477264773895,9.983800725693731
"59759 Arnsberg, DE",59759,DE,"59759, DE",51.42856443617424,7.9968627428842
"38110 Braunschweig, DE",38110,DE,"38110, DE",52.3178135,10.5280839
"73084 Salach, DE",73084,DE,"73084, DE",48.69252630761607,9.739360875586854
"58706 Menden, DE",58706,DE,"58706, DE",51.43924446241362,7.792918973234451
"12529 Schönefeld OT/Großziehten, DE",12529,DE,"12529, DE",51.43924446241362,7.792918973234451
"1000 Brussel, BE",1000,BE,"1000, BE",50.86188435,4.352997939561595
"28034 MADRID, ES",28034,ES,"28034, ES",40.49080290091463,-3.6964509394054876
"08201 SABADELL, ES",08201,ES,"08201, ES",41.54678282173913,2.1062179782608696
"97076 Würzburg, DE",97076,DE,"97076, DE",49.80477264773895,9.983800725693731
"50739 Köln-Bilderstöckchen, DE",50739,DE,"50739, DE",50.9710132,6.9286291
"70736 Fellbach, DE",70736,DE,"70736, DE",48.8155778,9.25955
"13353 Berlin, DE",13353,DE,"13353, DE",52.5437099,13.3635985
"74564 Crailsheim, DE",74564,DE,"74564, DE",49.1387652,10.0641863
"94034 Passau, DE",94034,DE,"94034, DE",48.5781891,13.4714358
"12529 Schönefeld OT/Großziehten, DE",12529,DE,"12529, DE",48.5781891,13.4714358
"01237 Dresden, DE",01237,DE,"01237, DE",51.0116318,13.7933077
"15366 Hoppegarten, DE",15366,DE,"15366, DE",52.5178265,13.6734805
"45309 Essen, DE",45309,DE,"45309, DE",51.47937293185773,7.066889833930398
"58706 Menden, DE",58706,DE,"58706, DE",51.43924446241362,7.792918973234451
"26140 LOGROÑO, ES",26140,ES,"26140, ES",42.427832689999995,-2.4604640399999997
"29010 MALAGA, ES",29010,ES,"29010, ES",36.72621450883386,-4.455759628124477
"74564 Crailsheim, DE",74564,DE,"74564, DE",49.1387652,10.0641863
"07009 PALMA DE MALLORCA, ES",07009,ES,"07009, ES",39.60049163913044,2.670864
"59759 Arnsberg, DE",59759,DE,"59759, DE",51.42856443617424,7.9968627428842
"13158 Berlin, DE",13158,DE,"13158, DE",52.5870436,13.3679378
"28660 BOADILLA DEL MONTE, ES",28660,ES,"28660, ES",40.4077833779661,-3.886371679661017
"8017 BARCELONA, ES",8017,ES,"8017, ES",37.7061762,-2.9351876
"45127 Essen, DE",45127,DE,"45127, DE",51.45209,7.0112799
"36251 Bad Hersfeld, DE",36251,DE,"36251, DE",50.8687504,9.7090821
"08029 BARCELONA, ES",08029,ES,"08029, ES",41.38664710327586,2.146568526724138
"38122 Braunschweig, DE",38122,DE,"38122, DE",52.2344011,10.4824971
"12487 Berlin, DE",12487,DE,"12487, DE",52.4427046,13.5019979
"38644 Goslar, DE",38644,DE,"38644, DE",51.8657926,10.3372399
"45478 Mülheim a. d. Ruhr, DE",45478,DE,"45478, DE",51.425378789732804,6.835444175846833
"30332 BALSAPINTADA, ES",30332,ES,"30332, ES",37.7537822,-1.1052971
"13127 Berlin Französisch-Buchholz, DE",13127,DE,"13127, DE",52.5849276,13.4286807
"94034 Passau, DE",94034,DE,"94034, DE",48.5781891,13.4714358
"38350 Helmstedt, DE",38350,DE,"38350, DE",52.2223351,11.0104408
"34123 Kassel, DE",34123,DE,"34123, DE",51.3037551,9.5494648
"12305 Berlin, DE",12305,DE,"12305, DE",52.398156,13.3904352
"36251 Bad Hersfeld, DE",36251,DE,"36251, DE",50.8687504,9.7090821
"15537 Erkner, DE",15537,DE,"15537, DE",52.4166402,13.7553552
"66822 Lebach, DE",66822,DE,"66822, DE",49.42469751390728,6.9254382764679905
"38110 Braunschweig, DE",38110,DE,"38110, DE",52.3178135,10.5280839
"56077 Koblenz, DE",56077,DE,"56077, DE",50.3600616,7.6110352
"45500 TORRIJOS, ES",45500,ES,"45500, ES",39.98445365,-4.282516657142858
"92442 Wackersdorf, DE",92442,DE,"92442, DE",49.3108845,12.1752372
"53359 Rheinbach, DE",53359,DE,"53359, DE",50.6194679,6.944975
"28400 COLLADO VILLALBA, ES",28400,ES,"28400, ES",40.63089579981159,-4.006238317176951
"12529 Schönefeld OT/Großziehten, DE",12529,DE,"12529, DE",40.63089579981159,-4.006238317176951
"29004 MALAGA, ES",29004,ES,"29004, ES",36.68495975258412,-4.467507040959588
"45472 Mülheim an der Ruhr, DE",45472,DE,"45472, DE",51.43298366689178,6.935204162770563
"41747 Viersen, DE",41747,DE,"41747, DE",51.25381366917628,6.389889226816433
"58706 Menden, DE",58706,DE,"58706, DE",51.43924446241362,7.792918973234451
"37079 Göttingen, DE",37079,DE,"37079, DE",51.5274699,9.8821752
"93073 Neutraubling, DE",93073,DE,"93073, DE",48.98844360596763,12.201084727714093
"8790 Waregem, BE",8790,BE,"8790, BE",50.88257546305163,3.423257735424979
"15517 Fürstenwalde, DE",15517,DE,"15517, DE",52.358671344984664,14.065135161808476
"28938 MOSTOLES, ES",28938,ES,"28938, ES",40.313929751960785,-3.8651596323529414
"68309 Mannheim, DE",68309,DE,"68309, DE",49.5079915,8.5480883
"12103 Berlin, DE",12103,DE,"12103, DE",52.4687127,13.3844306
"74080 Heilbronn, DE",74080,DE,"74080, DE",49.14004959417671,9.18641459188755
"15517 Fürstenwalde, DE",15517,DE,"15517, DE",52.358671344984664,14.065135161808476
"75179 Pforzheim, DE",75179,DE,"75179, DE",48.896063,8.6914917
"67346 Speyer, DE",67346,DE,"67346, DE",49.3216941,8.4330906
"58706 Menden, DE",58706,DE,"58706, DE",51.43924446241362,7.792918973234451
"97072 Würzburg, DE",97072,DE,"97072, DE",49.7817989,9.935026
"40472 Düsseldorf, DE",40472,DE,"40472, DE",51.2731748,6.8330067
"59759 Arnsberg, DE",59759,DE,"59759, DE",51.42856443617424,7.9968627428842
"38122 Braunschweig, DE",38122,DE,"38122, DE",52.2344011,10.4824971
"1000 Brussel, BE",1000,BE,"1000, BE",50.86188435,4.352997939561595
"33100 Paderborn, DE",33100,DE,"33100, DE",51.7086343,8.7811176
"79713 Bad Säckingen, DE",79713,DE,"79713, DE",47.56026861719197,7.949342342979942
"30139 EL RAAL, ES",30139,ES,"30139, ES",38.03607844444444,-1.0342946444444443
"79111 Freiburg, DE",79111,DE,"79111, DE",47.9814629,7.7957894
"84056 Rottenburg, DE",84056,DE,"84056, DE",48.72025993580786,12.049923641921398
"56077 Koblenz, DE",56077,DE,"56077, DE",50.3600616,7.6110352
"34123 Kassel, DE",34123,DE,"34123, DE",51.3037551,9.5494648
"26180 Rastede/ Wahnbek, DE",26180,DE,"26180, DE",51.3037551,9.5494648
"66822 Lebach, DE",66822,DE,"66822, DE",49.42469751390728,6.9254382764679905
"8740 Pittem, BE",8740,BE,"8740, BE",51.0020256,3.2500954
"79713 Bad Säckingen, DE",79713,DE,"79713, DE",47.56026861719197,7.949342342979942
"67346 Speyer, DE",67346,DE,"67346, DE",49.3216941,8.4330906
"13467 Berlin, DE",13467,DE,"13467, DE",52.6268164,13.3116676
"71332 Waiblingen, DE",71332,DE,"71332, DE",48.826377,9.3008194
"34123 Kassel, DE",34123,DE,"34123, DE",51.3037551,9.5494648
"79111 Freiburg, DE",79111,DE,"79111, DE",47.9814629,7.7957894
"28232 LAS ROZAS, ES",28232,ES,"28232, ES",40.52786238551237,-3.9159138604240282
"74564 Crailsheim, DE",74564,DE,"74564, DE",49.1387652,10.0641863
"67346 Speyer, DE",67346,DE,"67346, DE",49.3216941,8.4330906
"97424 Schweinfurt, DE",97424,DE,"97424, DE",50.0342269,10.2320914
"21502 Geesthacht, DE",21502,DE,"21502, DE",53.4275143,10.3763915
"74076 Heilbronn, DE",74076,DE,"74076, DE",49.15115067903349,9.229437030299158
"47011 VALLADOLID, ES",47011,ES,"47011, ES",41.65908608494118,-4.715596081647059
"69469 Weinheim, DE",69469,DE,"69469, DE",49.5207852,8.698667
"12529 Schönefeld OT/Großziehten, DE",12529,DE,"12529, DE",49.5207852,8.698667
"97076 Würzburg, DE",97076,DE,"97076, DE",49.80477264773895,9.983800725693731
"8790 Waregem, BE",8790,BE,"8790, BE",50.88257546305163,3.423257735424979
"38122 Braunschweig, DE",38122,DE,"38122, DE",52.2344011,10.4824971
"08174 SANT CUGAT DEL VALLES, ES",08174,ES,"08174, ES",41.48404942837838,2.055913474324324
"12529 Schönefeld OT/Großziehten, DE",12529,DE,"12529, DE",41.48404942837838,2.055913474324324
"99734 Nordhausen, DE",99734,DE,"99734, DE",51.5002716,10.7361654
"15517 Fürstenwalde, DE",15517,DE,"15517, DE",52.358671344984664,14.065135161808476
"3500 Hasselt, BE",3500,BE,"3500, BE",50.92928774845785,5.3266594075394105
"44789 Bochum, DE",44789,DE,"44789, DE",51.4712159,7.2278826
"8900 Ieper, BE",8900,BE,"8900, BE",50.854796134449764,2.886371116267943
"8903 SANT ADRIÀ DE BESÒS, ES",8903,ES,"8903, ES",41.4304832,2.2182775
"33100 Paderborn, DE",33100,DE,"33100, DE",51.7086343,8.7811176
"12529 Schönefeld, DE",12529,DE,"12529, DE",52.3644747,13.5100381
"97076 Würzburg, DE",97076,DE,"97076, DE",49.80477264773895,9.983800725693731
"7033 Mons (Cuesmes), BE",7033,BE,"7033, BE",50.44638985,3.9354252157715024
"14513 Teltow, DE",14513,DE,"14513, DE",52.3982517,13.251346
"33647 Bielefeld / Brackwede, DE",33647,DE,"33647, DE",51.9865365,8.5211502
"08026 BARCELONA, ES",08026,ES,"08026, ES",41.41182737801494,2.185389164674493
"73084 Salach, DE",73084,DE,"73084, DE",48.69252630761607,9.739360875586854
"66822 Lebach, DE",66822,DE,"66822, DE",49.42469751390728,6.9254382764679905
"70736 Fellbach, DE",70736,DE,"70736, DE",48.8155778,9.25955
"46004 VALENCIA, ES",46004,ES,"46004, ES",39.46719511375,-0.37146244125
"81243 München, DE",81243,DE,"81243, DE",48.1440426,11.4524721
"15517 Fürstenwalde, DE",15517,DE,"15517, DE",52.358671344984664,14.065135161808476
"69469 Weinheim, DE",69469,DE,"69469, DE",49.5207852,8.698667
"45309 Essen, DE",45309,DE,"45309, DE",51.47937293185773,7.066889833930398
"12529 Schönefeld OT/Großziehten, DE",12529,DE,"12529, DE",51.47937293185773,7.066889833930398
"37079 Göttingen, DE",37079,DE,"37079, DE",51.5274699,9.8821752
"13353 Berlin, DE",13353,DE,"13353, DE",52.5437099,13.3635985
"29660 MARBELLA, ES",29660,ES,"29660, ES",36.50940654285714,-4.964130237619048
"28021 MADRID, ES",28021,ES,"28021, ES",40.347191313347025,-3.704408644969199
"08173 SAN CUGAT DEL VALLES, ES",08173,ES,"08173, ES",41.4741130862069,2.0805406137931035
"94034 Passau, DE",94034,DE,"94034, DE",48.5781891,13.4714358
"28021 MADRID, ES",28021,ES,"28021, ES",40.347191313347025,-3.704408644969199
"15517 Fürstenwalde, DE",15517,DE,"15517, DE",52.358671344984664,14.065135161808476
"1000 Brussel, BE",1000,BE,"1000, BE",50.86188435,4.352997939561595
"97424 Schweinfurt, DE",97424,DE,"97424, DE",50.0342269,10.2320914
"12305 Berlin, DE",12305,DE,"12305, DE",52.398156,13.3904352
"28850 TORREJON DE ARDOZ, ES",28850,ES,"28850, ES",40.44458106799141,-3.4766363424274975
"53359 Rheinbach, DE",53359,DE,"53359, DE",50.6194679,6.944975
"13353 Berlin, DE",13353,DE,"13353, DE",52.5437099,13.3635985
"12351 Berlin, DE",12351,DE,"12351, DE",52.434474,13.4695587
"66822 Lebach, DE",66822,DE,"66822, DE",49.42469751390728,6.9254382764679905
"71332 Waiblingen, DE",71332,DE,"71332, DE",48.826377,9.3008194
"8870 Izegem, BE",8870,BE,"8870, BE",50.91953734792099,3.215220843139293
"15517 Fürstenwalde, DE",15517,DE,"15517, DE",52.358671344984664,14.065135161808476
"36860 PONTEAEREAS, ES",36860,ES,"36860, ES",52.358671344984664,14.065135161808476
"76275 Ettlingen, DE",76275,DE,"76275, DE",48.9567573,8.3780628
"12529 Schönefeld, DE",12529,DE,"12529, DE",52.3644747,13.5100381
"37193 CARERIZOS, ES",37193,ES,"37193, ES",52.3644747,13.5100381
"34123 Kassel, DE",34123,DE,"34123, DE",51.3037551,9.5494648
"31110 NOAIN, ES",31110,ES,"31110, ES",42.766550933333335,-1.6350872333333335
"8017 BARCELONA, ES",8017,ES,"8017, ES",37.7061762,-2.9351876
"2950 Kapellen, BE",2950,BE,"2950, BE",51.32891493372093,4.449302234883721
"12529 Schönefeld, DE",12529,DE,"12529, DE",52.3644747,13.5100381
"7100 La Louvière, BE",7100,BE,"7100, BE",50.479487,4.1852682
"79539 Lörrach, DE",79539,DE,"79539, DE",47.6175354,7.6601015
"79713 Bad Säckingen, DE",79713,DE,"79713, DE",47.56026861719197,7.949342342979942
"51149 Köln, DE",51149,DE,"51149, DE",50.9047822,7.0779071
"15517 Fürstenwalde, DE",15517,DE,"15517, DE",52.358671344984664,14.065135161808476
"5330 Assesse, BE",5330,BE,"5330, BE",50.38481225813304,4.994294080380101
"66822 Lebach, DE",66822,DE,"66822, DE",49.42469751390728,6.9254382764679905
"77652 Offenburg, DE",77652,DE,"77652, DE",48.5141746,7.9548606
"97424 Schweinfurt, DE",97424,DE,"97424, DE",50.0342269,10.2320914
"28021 MADRID, ES",28021,ES,"28021, ES",40.347191313347025,-3.704408644969199
"33100 Paderborn, DE",33100,DE,"33100, DE",51.7086343,8.7811176
"28021 MADRID, ES",28021,ES,"28021, ES",40.347191313347025,-3.704408644969199
"59759 Arnsberg, DE",59759,DE,"59759, DE",51.42856443617424,7.9968627428842
"59759 Arnsberg, DE",59759,DE,"59759, DE",51.42856443617424,7.9968627428842
"3960 Bree, BE",3960,BE,"3960, BE",51.13589070574033,5.610660560205977
"28925 ALCORCON, ES",28925,ES,"28925, ES",40.35515323290323,-3.8053875145161293
"93326 Abensberg, DE",93326,DE,"93326, DE",48.8086327,11.902432
"12529 Schönefeld, DE",12529,DE,"12529, DE",52.3644747,13.5100381
"93326 Abensberg, DE",93326,DE,"93326, DE",48.8086327,11.902432
"15172 PERILLO OLEIROS, ES",15172,ES,"15172, ES",43.33424740894428,-8.373987670381231
"77855 Achern, DE",77855,DE,"77855, DE",48.6294607,8.0713127
"99734 Nordhausen, DE",99734,DE,"99734, DE",51.5002716,10.7361654
9075 SUELO POL ,9075,ES,"9075, ES",51.5002716,10.7361654
"99817 Eisenach, DE",99817,DE,"99817, DE",50.9753168,10.3251402
"08174 SANT CUGAT DEL VALLES, ES",08174,ES,"08174, ES",41.48404942837838,2.055913474324324
"42109 Wuppertal, DE",42109,DE,"42109, DE",51.277246607420494,7.148678374770318
"47058 Duisburg, DE",47058,DE,"47058, DE",51.4337295,6.7903074
"97076 Würzburg, DE",97076,DE,"97076, DE",49.80477264773895,9.983800725693731
"28982 PARLA, ES",28982,ES,"28982, ES",40.246037925,-3.7799249125
"07009 PALMA DE MALLORCA, ES",07009,ES,"07009, ES",39.60049163913044,2.670864
"15517 Fürstenwalde, DE",15517,DE,"15517, DE",52.358671344984664,14.065135161808476
"99817 Eisenach, DE",99817,DE,"99817, DE",50.9753168,10.3251402
"69469 Weinheim, DE",69469,DE,"69469, DE",49.5207852,8.698667
"15517 Fürstenwalde, DE",15517,DE,"15517, DE",52.358671344984664,14.065135161808476
"84069 Schierling, DE",84069,DE,"84069, DE",48.8404433,12.1856201
"2960 Brecht, BE",2960,BE,"2960, BE",51.32490964939759,4.625568656626506
"69469 Weinheim, DE",69469,DE,"69469, DE",49.5207852,8.698667
"84069 Schierling, DE",84069,DE,"84069, DE",48.8404433,12.1856201
"54634 Bitburg, DE",54634,DE,"54634, DE",49.999398,6.570879
"15537 Erkner, DE",15537,DE,"15537, DE",52.4166402,13.7553552
"47249 Duisburg, DE",47249,DE,"47249, DE",51.3805366,6.7462948
"13353 Berlin, DE",13353,DE,"13353, DE",52.5437099,13.3635985
"74076 Heilbronn, DE",74076,DE,"74076, DE",49.15115067903349,9.229437030299158
"79111 Freiburg, DE",79111,DE,"79111, DE",47.9814629,7.7957894
"15866 TEO, ES",15866,ES,"15866, ES",42.82513380188679,-8.577964149056605
"53359 Rheinbach, DE",53359,DE,"53359, DE",50.6194679,6.944975
"73431 Aalen, DE",73431,DE,"73431, DE",48.83446138966866,10.103925755798436
"2280 Grobbendonk, BE",2280,BE,"2280, BE",51.1875432009009,4.742984948648648
"86707 Westendorf, DE",86707,DE,"86707, DE",48.573687051111115,10.839039800740741
"53359 Rheinbach, DE",53359,DE,"53359, DE",50.6194679,6.944975
"28021 MADRID, ES",28021,ES,"28021, ES",40.347191313347025,-3.704408644969199
"53359 Rheinbach, DE",53359,DE,"53359, DE",50.6194679,6.944975
"21502 Geesthacht, DE",21502,DE,"21502, DE",53.4275143,10.3763915
"28982 PARLA, ES",28982,ES,"28982, ES",40.246037925,-3.7799249125
"53359 Rheinbach, DE",53359,DE,"53359, DE",50.6194679,6.944975
"45127 Essen, DE",45127,DE,"45127, DE",51.45209,7.0112799
"30100 ESPINARDO, ES",30100,ES,"30100, ES",38.0105743,-1.156217
"97424 Schweinfurt, DE",97424,DE,"97424, DE",50.0342269,10.2320914
"70736 Fellbach, DE",70736,DE,"70736, DE",48.8155778,9.25955
"45478 Mülheim a. d. Ruhr, DE",45478,DE,"45478, DE",51.425378789732804,6.835444175846833
"39576 Stendal, DE",39576,DE,"39576, DE",52.6249369,11.8450396
"84069 Schierling, DE",84069,DE,"84069, DE",48.8404433,12.1856201
"45127 Essen, DE",45127,DE,"45127, DE",51.45209,7.0112799
"47058 Duisburg, DE",47058,DE,"47058, DE",51.4337295,6.7903074
"67346 Speyer, DE",67346,DE,"67346, DE",49.3216941,8.4330906
"28891 VELILLA DE SAN ANTONIO, ES",28891,ES,"28891, ES",40.367452606451614,-3.4867934032258066
"28002 MADRID, ES",28002,ES,"28002, ES",40.444858156360574,-3.67403179620893
"53359 Rheinbach, DE",53359,DE,"53359, DE",50.6194679,6.944975
"28021 MADRID, ES",28021,ES,"28021, ES",40.347191313347025,-3.704408644969199
"30855 Langenhagen / Kaltenweide, DE",30855,DE,"30855, DE",52.4797506,9.7357451
"8206 SABADELL, ES",8206,ES,"8206, ES",41.5421013,2.1138977
"19230 Hagenow, DE",19230,DE,"19230, DE",53.4280971,11.1964229
"28840 MEJORADA DEL CAMPO, ES",28840,ES,"28840, ES",40.395812645945945,-3.4844173918918924
"28982 PARLA, ES",28982,ES,"28982, ES",40.246037925,-3.7799249125
"45478 Mülheim a. d. Ruhr, DE",45478,DE,"45478, DE",51.425378789732804,6.835444175846833
"66822 Lebach, DE",66822,DE,"66822, DE",49.42469751390728,6.9254382764679905
"92224 Amberg, DE",92224,DE,"92224, DE",49.4324597,11.848674
"42553 Velbert, DE",42553,DE,"42553, DE",51.3157028,7.1515626
"67346 Speyer, DE",67346,DE,"67346, DE",49.3216941,8.4330906
"29004 MALAGA, ES",29004,ES,"29004, ES",36.68495975258412,-4.467507040959588
"46133 MELIANA, ES",46133,ES,"46133, ES",39.53027785,-0.34915955
"28034 Madrid, ES",28034,ES,"28034, ES",40.49080290091463,-3.6964509394054876
"84088 Neufahrn, DE",84088,DE,"84088, DE",48.73364653428571,12.180245355798318
"2590 Berlaar, BE",2590,BE,"2590, BE",51.10658737733559,4.654266350885707
"08034 BARCELONA, ES",08034,ES,"08034, ES",41.39372560725875,2.1178527554227156
"48960 GALDAKANO, ES",48960,ES,"48960, ES",41.39372560725875,2.1178527554227156
"79713 Bad Säckingen, DE",79713,DE,"79713, DE",47.56026861719197,7.949342342979942
"28021 MADRID, ES",28021,ES,"28021, ES",40.347191313347025,-3.704408644969199
"84069 Schierling, DE",84069,DE,"84069, DE",48.8404433,12.1856201
"74076 Heilbronn, DE",74076,DE,"74076, DE",49.15115067903349,9.229437030299158
"70736 Fellbach, DE",70736,DE,"70736, DE",48.8155778,9.25955
"92224 Amberg, DE",92224,DE,"92224, DE",49.4324597,11.848674
"36207 VIGO, ES",36207,ES,"36207, ES",42.24690791492537,-8.69956317164179
"8029 BARCELONA, ES",8029,ES,"8029, ES",37.7061762,-2.9351876
"53359 Rheinbach, DE",53359,DE,"53359, DE",50.6194679,6.944975
"53359 Rheinbach, DE",53359,DE,"53359, DE",50.6194679,6.944975
"28041 MADRID, ES",28041,ES,"28041, ES",40.36067816984205,-3.6979606211747287
"64625 Bensheim, DE",64625,DE,"64625, DE",49.6901153,8.6185243
"15537 Erkner, DE",15537,DE,"15537, DE",52.4166402,13.7553552
"53359 Rheinbach, DE",53359,DE,"53359, DE",50.6194679,6.944975
"53359 Rheinbach, DE",53359,DE,"53359, DE",50.6194679,6.944975
"71332 Waiblingen, DE",71332,DE,"71332, DE",48.826377,9.3008194
"66822 Lebach, DE",66822,DE,"66822, DE",49.42469751390728,6.9254382764679905
"28806 ALCALA DE HENARES, ES",28806,ES,"28806, ES",40.49969566485623,-3.371292825878594
"28050 MADRID, ES",28050,ES,"28050, ES",40.492764497557474,-3.6617469369252875
"23560 Lübeck, DE",23560,DE,"23560, DE",53.7961887,10.7138284
"33100 Paderborn, DE",33100,DE,"33100, DE",51.7086343,8.7811176
"79111 Freiburg, DE",79111,DE,"79111, DE",47.9814629,7.7957894
"28021 MADRID, ES",28021,ES,"28021, ES",40.347191313347025,-3.704408644969199
"84069 Schierling, DE",84069,DE,"84069, DE",48.8404433,12.1856201
"27003 LUGO, ES",27003,ES,"27003, ES",43.02649159734121,-7.5639038435007375
"28041 MADRID, ES",28041,ES,"28041, ES",40.36067816984205,-3.6979606211747287
"8029 BARCELONA, ES",8029,ES,"8029, ES",37.7061762,-2.9351876
"15517 Fürstenwalde, DE",15517,DE,"15517, DE",52.358671344984664,14.065135161808476
"46930 Quart de Poblet, ES",46930,ES,"46930, ES",39.47981365,-0.45104650999999996
"45309 Essen, DE",45309,DE,"45309, DE",51.47937293185773,7.066889833930398
"8015 Barcelona, ES",8015,ES,"8015, ES",37.7061762,-2.9351876
"79111 Freiburg, DE",79111,DE,"79111, DE",47.9814629,7.7957894
"09007 BURGOS, ES",09007,ES,"09007, ES",42.3548482054,-3.6525912815
"53359 Rheinbach, DE",53359,DE,"53359, DE",50.6194679,6.944975
"79111 Freiburg, DE",79111,DE,"79111, DE",47.9814629,7.7957894
"84069 Schierling, DE",84069,DE,"84069, DE",48.8404433,12.1856201
"84069 Schierling, DE",84069,DE,"84069, DE",48.8404433,12.1856201
"70736 Fellbach, DE",70736,DE,"70736, DE",48.8155778,9.25955
"28022 MADRID, ES",28022,ES,"28022, ES",40.43622689287672,-3.6050101016438356
"34004 PALENCIA, ES",34004,ES,"34004, ES",42.00140708,-4.523071592
"70736 Fellbach, DE",70736,DE,"70736, DE",48.8155778,9.25955
"58706 Menden, DE",58706,DE,"58706, DE",51.43924446241362,7.792918973234451
"67346 Speyer, DE",67346,DE,"67346, DE",49.3216941,8.4330906
"08820 EL PRAT DE LLOBREGAT, ES",08820,ES,"08820, ES",41.324033841085274,2.100006880620155
"53359 Rheinbach, DE",53359,DE,"53359, DE",50.6194679,6.944975
"71069 Sindelfingen-Darmsheim, DE",71069,DE,"71069, DE",50.6194679,6.944975
"2300 Turnhout, BE",2300,BE,"2300, BE",51.31717240963636,4.936604818363636
"7100 La Louvière, BE",7100,BE,"7100, BE",50.479487,4.1852682
"56070 Koblenz, DE",56070,DE,"56070, DE",50.3770266,7.5836885
"10600 PLASENCIA, ES",10600,ES,"10600, ES",40.028989379464285,-6.0917519973214285
"02005 ALBACETE, ES",02005,ES,"02005, ES",39.0039839,-1.8666942529522106
"97076 Würzburg, DE",97076,DE,"97076, DE",49.80477264773895,9.983800725693731
"46988 PATERNA, ES",46988,ES,"46988, ES",39.51112394,-0.46034147999999997
"15517 Fürstenwalde, DE",15517,DE,"15517, DE",52.358671344984664,14.065135161808476
"12247 Berlin - Steglitz, DE",12247,DE,"12247, DE",52.4445267,13.3553029
"33100 Paderborn, DE",33100,DE,"33100, DE",51.7086343,8.7811176
"14943 Luckenwalde, DE",14943,DE,"14943, DE",52.09089904491175,13.16219965013143
"7700 Mouscron, BE",7700,BE,"7700, BE",50.743278814166665,3.2197152858333333
"18320 SANTA FE (GRANADA),  ",18320,ES,"18320, ES",37.189891538157895,-3.716835721052632
"31228 Peine, DE",31228,DE,"31228, DE",52.3263629,10.2089042
"28015 MADRID, ES",28015,ES,"28015, ES",40.43095509221636,-3.710129225197889
"15537 Erkner, DE",15537,DE,"15537, DE",52.4166402,13.7553552
"12247 Berlin - Steglitz, DE",12247,DE,"12247, DE",52.4445267,13.3553029
"38110 Braunschweig, DE",38110,DE,"38110, DE",52.3178135,10.5280839
"08034 BARCELONA, ES",08034,ES,"08034, ES",41.39372560725875,2.1178527554227156
"28021 MADRID, ES",28021,ES,"28021, ES",40.347191313347025,-3.704408644969199
"46460 SILLA, ES",46460,ES,"46460, ES",39.36242009310345,-0.4117590810344827
"44789 Bochum, DE",44789,DE,"44789, DE",51.4712159,7.2278826
"9990 Maldegem, BE",9990,BE,"9990, BE",51.20005815144928,3.4464107782608697
"30163 MURCIA, ES",30163,ES,"30163, ES",38.039799671428575,-1.0887871714285715
"23560 Lübeck, DE",23560,DE,"23560, DE",53.7961887,10.7138284
"8840 Oostnieuwkerke, BE",8840,BE,"8840, BE",50.9404849,3.0592908
"12351 Berlin, DE",12351,DE,"12351, DE",52.434474,13.4695587
"08401 GRANOLLERS, ES",08401,ES,"08401, ES",41.606462524,2.286191088
"12529 Schönefeld, DE",12529,DE,"12529, DE",52.3644747,13.5100381
"73084 Salach, DE",73084,DE,"73084, DE",48.69252630761607,9.739360875586854
"12107 Berlin, DE",12107,DE,"12107, DE",52.4335813,13.3903253
"12529 Schönefeld, DE",12529,DE,"12529, DE",52.3644747,13.5100381
"58636 Iserlohn, DE",58636,DE,"58636, DE",51.3807935,7.7025556
"59759 Arnsberg, DE",59759,DE,"59759, DE",51.42856443617424,7.9968627428842
"8970 Poperinge, BE",8970,BE,"8970, BE",50.85434632518854,2.72556872066365
"08173 SANT CUGAT DEL VALLÈS, ES",08173,ES,"08173, ES",41.4741130862069,2.0805406137931035
"8840 Oostnieuwkerke, BE",8840,BE,"8840, BE",50.9404849,3.0592908
"30916 Isernhagen, DE",30916,DE,"30916, DE",52.4341763,9.8601385
"06847 Dessau, DE",06847,DE,"06847, DE",51.7990411,12.1852815
"12351 Berlin, DE",12351,DE,"12351, DE",52.434474,13.4695587
"13005 Valdepeñas, ES",13005,ES,"13005, ES",38.7594573,-3.3847392
"14772 Brandenburg an der Havel, DE",14772,DE,"14772, DE",52.4303329,12.5588881
"12351 Berlin, DE",12351,DE,"12351, DE",52.434474,13.4695587
"12351 Berlin, DE",12351,DE,"12351, DE",52.434474,13.4695587
"7100 La Louvière, BE",7100,BE,"7100, BE",50.479487,4.1852682
"53359 Rheinbach, DE",53359,DE,"53359, DE",50.6194679,6.944975
"6061 Montignies-sur-Sambre, BE",6061,BE,"6061, BE",50.407002719354836,4.476668583870968
"29004 MALAGA, ES",29004,ES,"29004, ES",36.68495975258412,-4.467507040959588
"12357 Berlin, DE",12357,DE,"12357, DE",52.4365725,13.4792625
"87629 Füssen, DE",87629,DE,"87629, DE",47.5612688,10.6439913
"42781 Haan, DE",42781,DE,"42781, DE",51.1873396,6.9895808
"06842 Dessau, DE",06842,DE,"06842, DE",51.8393477,12.2529862
"28232 LAS ROZAS, ES",28232,ES,"28232, ES",40.52786238551237,-3.9159138604240282
"86707 Westendorf, DE",86707,DE,"86707, DE",48.573687051111115,10.839039800740741
"71126 Gäufelden, DE",71126,DE,"71126, DE",48.5614655,8.8534027
"03690 SAN VICENTE DE RASPEIG, ES",03690,ES,"03690, ES",38.394749647619044,-0.5223767650793651
"41352 Korschenbroich, DE",41352,DE,"41352, DE",51.192342,6.5163612
"49134 Wallenhorst, DE",49134,DE,"49134, DE",52.336599,8.0592493
"02006 Albacete, ES",02006,ES,"02006, ES",38.985497949999996,-1.8719616663663396
"14513 Teltow, DE",14513,DE,"14513, DE",52.3982517,13.251346
"3770 EL VERGEL, ES",3770,ES,"3770, ES",40.502007,-2.8340316
"84030 Landshut, DE",84030,DE,"84030, DE",48.56364563723161,12.15945404029237
"28108 ALCOBENDAS, ES",28108,ES,"28108, ES",40.52763195225225,-3.644960918018018
"45472 Mülheim an der Ruhr, DE",45472,DE,"45472, DE",51.43298366689178,6.935204162770563
"02006 Albacete, ES",02006,ES,"02006, ES",38.985497949999996,-1.8719616663663396
"15517 Fürstenwalde/Spree, DE",15517,DE,"15517, DE",52.358671344984664,14.065135161808476
"36418 MOS, ES",36418,ES,"36418, ES",42.2030958,-8.6085418
"53489 Sinzig, DE",53489,DE,"53489, DE",50.5470292,7.258812
"73431 Aalen, DE",73431,DE,"73431, DE",48.83446138966866,10.103925755798436
"03203 ELCHE, ES",03203,ES,"03203, ES",38.292400505607475,-0.6182508415887851
"1651 Lot, BE",1651,BE,"1651, BE",50.76767517142857,4.273772257142857
1840 Londerzeel ( A,1840,BE,"1840, BE",51.0122466,4.299072941633785
"08203 SABADELL, ES",08203,ES,"08203, ES",41.5360496875,2.11500818125
"12529 Schönefeld, DE",12529,DE,"12529, DE",52.3644747,13.5100381
"25337 Elmshorn, DE",25337,DE,"25337, DE",53.7444398,9.7033825
"26180 Rastede/ Wahnbek, DE",26180,DE,"26180, DE",53.7444398,9.7033825
"01237 Dresden, DE",01237,DE,"01237, DE",51.0116318,13.7933077
"97076 Würzburg, DE",97076,DE,"97076, DE",49.80477264773895,9.983800725693731
"56077 Koblenz, DE",56077,DE,"56077, DE",50.3600616,7.6110352
"23560 Lübeck, DE",23560,DE,"23560, DE",53.7961887,10.7138284
"79111 Freiburg, DE",79111,DE,"79111, DE",47.9814629,7.7957894
"8300 Knokke-Heist, BE",8300,BE,"8300, BE",51.34634507381568,3.2911197499569336
"49439 Steinfeld, DE",49439,DE,"49439, DE",52.5873848,8.2174281
"86707 Westendorf, DE",86707,DE,"86707, DE",48.573687051111115,10.839039800740741
"3960 Bree, BE",3960,BE,"3960, BE",51.13589070574033,5.610660560205977
"12529 Schönefeld, DE",12529,DE,"12529, DE",52.3644747,13.5100381
"15517 Fürstenwalde, DE",15517,DE,"15517, DE",52.358671344984664,14.065135161808476
"38122 Braunschweig, DE",38122,DE,"38122, DE",52.2344011,10.4824971
"34123 Kassel, DE",34123,DE,"34123, DE",51.3037551,9.5494648
"27192 SAN SALVADOR DE MUXA, ES",27192,ES,"27192, ES",43.0396255,-7.5348518
"1000 Brussel, BE",1000,BE,"1000, BE",50.86188435,4.352997939561595
"8790 Waregem, BE",8790,BE,"8790, BE",50.88257546305163,3.423257735424979
"53489 Sinzig, DE",53489,DE,"53489, DE",50.5470292,7.258812
"35625 Hüttenberg, DE",35625,DE,"35625, DE",50.512405457764146,8.582464405763073
"3545 Halen, BE",3545,BE,"3545, BE",50.97509607140719,5.1133013389970055
"9810 Eke, BE",9810,BE,"9810, BE",50.9078719,3.822086
"53359 Rheinbach, DE",53359,DE,"53359, DE",50.6194679,6.944975
"43500 TORTOSA, ES",43500,ES,"43500, ES",40.81277781909407,0.5219058173170732
"12305 Berlin, DE",12305,DE,"12305, DE",52.398156,13.3904352
"94034 Passau, DE",94034,DE,"94034, DE",48.5781891,13.4714358
"12529 Schönefeld, DE",12529,DE,"12529, DE",52.3644747,13.5100381
"3500 Hasselt, BE",3500,BE,"3500, BE",50.92928774845785,5.3266594075394105
"28043 MADRID, ES",28043,ES,"28043, ES",40.46215373079019,-3.6381815811989098
"12529 Schönefeld, DE",12529,DE,"12529, DE",52.3644747,13.5100381
"5363 Hamois, BE",5363,BE,"5363, BE",50.33164566245847,5.115530365448505
"59759 Arnsberg, DE",59759,DE,"59759, DE",51.42856443617424,7.9968627428842
"81241 München, DE",81241,DE,"81241, DE",48.1448697,11.4824225
"06842 Dessau, DE",06842,DE,"06842, DE",51.8393477,12.2529862
"12529 Schönefeld, DE",12529,DE,"12529, DE",52.3644747,13.5100381
"8800 Roeselare, BE",8800,BE,"8800, BE",50.948061569575756,3.133290961939394
"26203 Wardenburg, DE",26203,DE,"26203, DE",53.07403015369515,8.18424242482679
"13353 Berlin, DE",13353,DE,"13353, DE",52.5437099,13.3635985
"13127 Berlin Französisch-Buchholz, DE",13127,DE,"13127, DE",52.5849276,13.4286807
"12305 Berlin, DE",12305,DE,"12305, DE",52.398156,13.3904352
"55543 Bad Kreuznach, DE",55543,DE,"55543, DE",49.838561953897056,7.865123921102941
"22004 HUESCA, ES",22004,ES,"22004, ES",42.13718666049869,-0.41793492454068243
"12529 Schönefeld, DE",12529,DE,"12529, DE",52.3644747,13.5100381
"14513 Teltow, DE",14513,DE,"14513, DE",52.3982517,13.251346
"9810 Eke, BE",9810,BE,"9810, BE",50.9078719,3.822086
"01237 Dresden, DE",01237,DE,"01237, DE",51.0116318,13.7933077
"8017 BARCELONA, ES",8017,ES,"8017, ES",37.7061762,-2.9351876
"59759 Arnsberg, DE",59759,DE,"59759, DE",51.42856443617424,7.9968627428842
"71332 Waiblingen, DE",71332,DE,"71332, DE",48.826377,9.3008194
"8440 CARDEDEU, ES",8440,ES,"8440, ES",41.6867898,2.2872872
"14480 Potsdam, DE",14480,DE,"14480, DE",52.376118,13.1295792
"27192 Monforte de Lemos, ES",27192,ES,"27192, ES",42.5236693,-7.5096951
"36418 MOS, ES",36418,ES,"36418, ES",42.2030958,-8.6085418
"86707 Westendorf, DE",86707,DE,"86707, DE",48.573687051111115,10.839039800740741
"12529 Schönefeld, DE",12529,DE,"12529, DE",52.3644747,13.5100381
"12357 Berlin, DE",12357,DE,"12357, DE",52.4365725,13.4792625
"99817 Eisenach, DE",99817,DE,"99817, DE",50.9753168,10.3251402
"28006 MADRID, ES",28006,ES,"28006, ES",40.433928624205606,-3.6804955660747662
"28806 ALCALÁ DE HENARES, ES",28806,ES,"28806, ES",40.49969566485623,-3.371292825878594
"28936 Mostoles, ES",28936,ES,"28936, ES",40.317653696,-3.851780714
"31226 Peine, DE",31226,DE,"31226, DE",52.3138147,10.2351358
"8440 CARDEDEU, ES",8440,ES,"8440, ES",41.6867898,2.2872872
"33758 Schloß Holte-Stukenbrock, DE",33758,DE,"33758, DE",51.9155697,8.6634254
"85276 Pfaffenhofen an der Ilm, DE",85276,DE,"85276, DE",48.528554999913595,11.501144986549539
"8440 CARDEDEU, ES",8440,ES,"8440, ES",41.6867898,2.2872872
"49477 Ibbenbüren, DE",49477,DE,"49477, DE",52.2746821,7.7139309
"30916 Isernhagen, DE",30916,DE,"30916, DE",52.4341763,9.8601385
"8740 Pittem, BE",8740,BE,"8740, BE",51.0020256,3.2500954
"14029 CORDOBA, ES",14029,ES,"14029, ES",37.9712426375,-4.84153833125
"2300 Turnhout, BE",2300,BE,"2300, BE",51.31717240963636,4.936604818363636
"94034 Passau, DE",94034,DE,"94034, DE",48.5781891,13.4714358
"37008 SALAMANCA, ES",37008,ES,"37008, ES",40.95187947649212,-5.678820320411036
"65779 Kelkheim, DE",65779,DE,"65779, DE",50.1454529,8.449791
"2590 Berlaar, BE",2590,BE,"2590, BE",51.10658737733559,4.654266350885707
"36860 PONTEAEREAS, ES",36860,ES,"36860, ES",51.10658737733559,4.654266350885707
"59759 Arnsberg, DE",59759,DE,"59759, DE",51.42856443617424,7.9968627428842
"59759 Arnsberg, DE",59759,DE,"59759, DE",51.42856443617424,7.9968627428842
"3545 Halen, BE",3545,BE,"3545, BE",50.97509607140719,5.1133013389970055
"15517 Fürstenwalde, DE",15517,DE,"15517, DE",52.358671344984664,14.065135161808476
"08034 BARCELONA, ES",08034,ES,"08034, ES",41.39372560725875,2.1178527554227156
"30100 ESPINARDO, ES",30100,ES,"30100, ES",38.0105743,-1.156217
"81825 München, DE",81825,DE,"81825, DE",48.1109431,11.6670511
"8029 BARCELONA, ES",8029,ES,"8029, ES",37.7061762,-2.9351876
"12351 Berlin, DE",12351,DE,"12351, DE",52.434474,13.4695587
"44789 Bochum, DE",44789,DE,"44789, DE",51.4712159,7.2278826
"15537 Erkner, DE",15537,DE,"15537, DE",52.4166402,13.7553552
"64625 Bensheim, DE",64625,DE,"64625, DE",49.6901153,8.6185243
"5330 Assesse, BE",5330,BE,"5330, BE",50.38481225813304,4.994294080380101
"73084 Salach, DE",73084,DE,"73084, DE",48.69252630761607,9.739360875586854
"38110 Braunschweig, DE",38110,DE,"38110, DE",52.3178135,10.5280839
"66822 Lebach, DE",66822,DE,"66822, DE",49.42469751390728,6.9254382764679905
"8530 Harelbeke, BE",8530,BE,"8530, BE",50.84742325508444,3.3120726170918675
"44789 Bochum, DE",44789,DE,"44789, DE",51.4712159,7.2278826
"8530 Harelbeke, BE",8530,BE,"8530, BE",50.84742325508444,3.3120726170918675
"99734 Nordhausen, DE",99734,DE,"99734, DE",51.5002716,10.7361654
"17268 Templin, DE",17268,DE,"17268, DE",52.99403,13.5338373
"63538 Grosskrotzenburg, DE",63538,DE,"63538, DE",50.0872002,8.9820756
"25337 Elmshorn, DE",25337,DE,"25337, DE",53.7444398,9.7033825
"8790 Waregem, BE",8790,BE,"8790, BE",50.88257546305163,3.423257735424979
"2870 Puurs, BE",2870,BE,"2870, BE",51.062399952678575,4.292666100892857
"84069 Schierling, DE",84069,DE,"84069, DE",48.8404433,12.1856201
"85737 Ismaning, DE",85737,DE,"85737, DE",48.2511536,11.7534973
"36860 PONTEAEREAS, ES",36860,ES,"36860, ES",48.2511536,11.7534973
"85614 Kirchseon, DE",85614,DE,"85614, DE",48.2511536,11.7534973
"8028 BARCELONA, ES",8028,ES,"8028, ES",37.7061762,-2.9351876
"94315 Straubing, DE",94315,DE,"94315, DE",48.8705249,12.5511108
"25337 Elmshorn, DE",25337,DE,"25337, DE",53.7444398,9.7033825
"2580 Beerzel, BE",2580,BE,"2580, BE",51.0586177,4.6698925
"71332 Waiblingen, DE",71332,DE,"71332, DE",48.826377,9.3008194
"15517 Fürstenwalde, DE",15517,DE,"15517, DE",52.358671344984664,14.065135161808476
"58706 Menden, DE",58706,DE,"58706, DE",51.43924446241362,7.792918973234451
"8800 Roeselare, BE",8800,BE,"8800, BE",50.948061569575756,3.133290961939394
"01662 Meißen, DE",01662,DE,"01662, DE",51.16075606154274,13.478242953402559
"97424 Schweinfurt, DE",97424,DE,"97424, DE",50.0342269,10.2320914
"99817 Eisenach, DE",99817,DE,"99817, DE",50.9753168,10.3251402
"4000 Liège, BE",4000,BE,"4000, BE",50.6476489,5.559432849428294
"94447 Plattling, DE",94447,DE,"94447, DE",48.780172145847175,12.872105347840531
"59192 Bergkamen, DE",59192,DE,"59192, DE",51.6139695,7.6805994
"01139 Dresden, DE",01139,DE,"01139, DE",51.0831044,13.6715505
"71332 Waiblingen, DE",71332,DE,"71332, DE",48.826377,9.3008194
"28019 MADRID, ES",28019,ES,"28019, ES",40.393865021009866,-3.717080980963436
"84069 Schierling, DE",84069,DE,"84069, DE",48.8404433,12.1856201
"28021 MADRID, ES",28021,ES,"28021, ES",40.347191313347025,-3.704408644969199
"69469 Weinheim, DE",69469,DE,"69469, DE",49.5207852,8.698667
"28015 MADRID, ES",28015,ES,"28015, ES",40.43095509221636,-3.710129225197889
"79111 Freiburg, DE",79111,DE,"79111, DE",47.9814629,7.7957894
"50259 Pulheim, DE",50259,DE,"50259, DE",50.9981195,6.7973808
"8029 BARCELONA, ES",8029,ES,"8029, ES",37.7061762,-2.9351876
"58706 Menden, DE",58706,DE,"58706, DE",51.43924446241362,7.792918973234451
"26180 Rastede/ Wahnbek, DE",26180,DE,"26180, DE",51.43924446241362,7.792918973234451
"15517 Fürstenwalde, DE",15517,DE,"15517, DE",52.358671344984664,14.065135161808476
"38644 Goslar, DE",38644,DE,"38644, DE",51.8657926,10.3372399
"8790 Waregem, BE",8790,BE,"8790, BE",50.88257546305163,3.423257735424979
"55252 Mainz-Kastel, DE",55252,DE,"55252, DE",50.0248446,8.2785117
"79111 Freiburg, DE",79111,DE,"79111, DE",47.9814629,7.7957894
"53489 Sinzig, DE",53489,DE,"53489, DE",50.5470292,7.258812
"45472 Mülheim an der Ruhr, DE",45472,DE,"45472, DE",51.43298366689178,6.935204162770563
"41199 Mönchengladbach, DE",41199,DE,"41199, DE",51.13441557640191,6.450485591508933
"03690 SAN VICENTE DE RASPEIG, ES",03690,ES,"03690, ES",38.394749647619044,-0.5223767650793651
"87656 Germaringen, DE",87656,DE,"87656, DE",47.93126694776579,10.677658631124809
"2300 Turnhout, BE",2300,BE,"2300, BE",51.31717240963636,4.936604818363636
"94447 Plattling, DE",94447,DE,"94447, DE",48.780172145847175,12.872105347840531
"33100 Paderborn, DE",33100,DE,"33100, DE",51.7086343,8.7811176
"26140 LOGROÑO, ES",26140,ES,"26140, ES",42.427832689999995,-2.4604640399999997
"67346 Speyer, DE",67346,DE,"67346, DE",49.3216941,8.4330906
"9320 Aalst, BE",9320,BE,"9320, BE",50.92707027654321,4.036796028395062
"79539 Lörrach, DE",79539,DE,"79539, DE",47.6175354,7.6601015
"45309 Essen, DE",45309,DE,"45309, DE",51.47937293185773,7.066889833930398
"36251 Bad Hersfeld, DE",36251,DE,"36251, DE",50.8687504,9.7090821
"79111 Freiburg, DE",79111,DE,"79111, DE",47.9814629,7.7957894
"8015 Barcelona, ES",8015,ES,"8015, ES",37.7061762,-2.9351876
"7500 Tournai, BE",7500,BE,"7500, BE",50.607816770625,3.3908318693402775
"41007 SEVILLA, ES",41007,ES,"41007, ES",37.39519904647887,-5.960063516901408
1840 Londerzeel ( A,1840,BE,"1840, BE",51.0122466,4.299072941633785
"28522 RIVAS-VACIAMADRID, ES",28522,ES,"28522, ES",40.35948777984624,-3.533342417682592
"86707 Westendorf, DE",86707,DE,"86707, DE",48.573687051111115,10.839039800740741
"13353 Berlin, DE",13353,DE,"13353, DE",52.5437099,13.3635985
"99734 Nordhausen, DE",99734,DE,"99734, DE",51.5002716,10.7361654
"09111 Chemnitz, DE",09111,DE,"09111, DE",50.8335409,12.9222131
"79111 Freiburg, DE",79111,DE,"79111, DE",47.9814629,7.7957894
"38122 Braunschweig, DE",38122,DE,"38122, DE",52.2344011,10.4824971
"28021 MADRID, ES",28021,ES,"28021, ES",40.347191313347025,-3.704408644969199
"79111 Freiburg, DE",79111,DE,"79111, DE",47.9814629,7.7957894
"49847 Itterbeck, DE",49847,DE,"49847, DE",52.50147077586207,6.800771655172413
"14513 Teltow, DE",14513,DE,"14513, DE",52.3982517,13.251346
"70736 Fellbach, DE",70736,DE,"70736, DE",48.8155778,9.25955
"42553 Velbert, DE",42553,DE,"42553, DE",51.3157028,7.1515626
"28034 Madrid, ES",28034,ES,"28034, ES",40.49080290091463,-3.6964509394054876
"8210 Loppem, BE",8210,BE,"8210, BE",51.147465916875,3.175987711875
"41352 Korschenbroich, DE",41352,DE,"41352, DE",51.192342,6.5163612
"34123 Kassel, DE",34123,DE,"34123, DE",51.3037551,9.5494648
"28022 MADRID, ES",28022,ES,"28022, ES",40.43622689287672,-3.6050101016438356
"5330 Assesse, BE",5330,BE,"5330, BE",50.38481225813304,4.994294080380101
"65205 Wiesbaden, DE",65205,DE,"65205, DE",50.0420261,8.3614176
"67346 Speyer, DE",67346,DE,"67346, DE",49.3216941,8.4330906
"45309 Essen, DE",45309,DE,"45309, DE",51.47937293185773,7.066889833930398
"40472 Düsseldorf, DE",40472,DE,"40472, DE",51.2731748,6.8330067
"49477 Ibbenbüren, DE",49477,DE,"49477, DE",52.2746821,7.7139309
"86707 Westendorf, DE",86707,DE,"86707, DE",48.573687051111115,10.839039800740741
"7600 Peruwelz, BE",7600,BE,"7600, BE",50.5157301125,3.59540053125
"9160 Lokeren, BE",9160,BE,"9160, BE",51.11260812619048,3.9872444809523806
"63538 Grosskrotzenburg, DE",63538,DE,"63538, DE",50.0872002,8.9820756
"99734 Nordhausen, DE",99734,DE,"99734, DE",51.5002716,10.7361654
"67346 Speyer, DE",67346,DE,"67346, DE",49.3216941,8.4330906
"48960 GALDAKANO, ES",48960,ES,"48960, ES",49.3216941,8.4330906
"26180 Rastede/ Wahnbek, DE",26180,DE,"26180, DE",49.3216941,8.4330906
"38122 Braunschweig, DE",38122,DE,"38122, DE",52.2344011,10.4824971
"45472 Mülheim an der Ruhr, DE",45472,DE,"45472, DE",51.43298366689178,6.935204162770563
